[{"Vital Street Name": "LANG ST", "Vital House Number": 71, "Owner Name": "US BANK, N.A., TTEE OWS REO TRUST", "Class Desc": "Vacant", "Zipcode": "", "Longitude": -74.154235488614, "NetValue": 0, "Most Recent Inspection": "11-18-2016", "Lot": 51, "Latitude": 40.72447661, "_id": {"$oid": "58c9259116870f9dd95da6f0"}, "Owner Address": "1290 6TH AVE, 34TH FLOOR", "Block": 1003, "City, State": "NEW YORK, NY"}, {"Vital Street Name": "NAPOLEON ST", "Vital House Number": 97, "Owner Name": "MTGLQ INVESTORS, LP,", "Class Desc": "Vacant", "Zipcode": "", "Longitude": -74.152640687236, "NetValue": 0, "Most Recent Inspection": "11-22-2016", "Lot": 76, "Latitude": 40.72362893, "_id": {"$oid": "58c9259116870f9dd95da6f1"}, "Owner Address": "200 WEST ST #5 FL", "Block": 1005, "City, State": "NEW YORK,NY"}, {"Vital Street Name": "GARRISON ST", "Vital House Number": 98, "Owner Name": "MIDFIRST BANK,", "Class Desc": "Vacant", "Zipcode": "", "Longitude": -74.152540680796, "NetValue": 0, "Most Recent Inspection": "01-06-2017", "Lot": 21, "Latitude": 40.72262453, "_id": {"$oid": "58c9259116870f9dd95da6f2"}, "Owner Address": "999 N.W. GRAND BLVD #100", "Block": 1006, "City, State": "OKLAHOMA CITY, OK"}, {"Vital Street Name": "JABEZ ST", "Vital House Number": 119, "Owner Name": "HSBC BANK USA NATION,", "Class Desc": "Vacant", "Zipcode": "", "Longitude": -74.15001232976, "NetValue": 0, "Most Recent Inspection": "03-10-2017", "Lot": 1.06, "Latitude": 40.72141674, "_id": {"$oid": "58c9259116870f9dd95da6f3"}, "Owner Address": "350 HIGHLAND DR.", "Block": 1010, "City, State": "LEWISVILLE,TX"}, {"Vital Street Name": "ORANGE ST", "Vital House Number": "2-20", "Owner Name": "ESSEX COUNTY IMPROVE,", "Class Desc": "", "Zipcode": "", "Longitude": -74.167765389682, "NetValue": "48,149,900", "Most Recent Inspection": "", "Lot": 1, "Latitude": 40.74594736, "_id": {"$oid": "58c9259116870f9dd95da6f4"}, "Owner Address": "27 WRIGHT WAY", "Block": 11, "City, State": "FAIRFIELD NJ"}, {"Vital Street Name": "W KINNEY ST", "Vital House Number": 84, "Owner Name": "NZEMBA, MIL SYLVAN", "Class Desc": "Abandoned", "Zipcode": "", "Longitude": -74.180291052867, "NetValue": 0, "Most Recent Inspection": "02-01-2016", "Lot": 47, "Latitude": 40.72980155, "_id": {"$oid": "58c9259116870f9dd95da6f5"}, "Owner Address": "84 W KINNEY ST", "Block": 114.01, "City, State": "NEWARK, NJ"}, {"Vital Street Name": "GOBLE ST", "Vital House Number": 35, "Owner Name": "CASTILO, MAURA CHICA", "Class Desc": "Abandoned", "Zipcode": 7105, "Longitude": -74.17360540147, "NetValue": 0, "Most Recent Inspection": "02-03-2017", "Lot": 8, "Latitude": 40.72025125, "_id": {"$oid": "58c9259116870f9dd95da6f6"}, "Owner Address": "35 GOBLE ST", "Block": 1166, "City, State": "NEWARK, NJ"}, {"Vital Street Name": "MURRAY ST", "Vital House Number": 236, "Owner Name": "CHRISTINA TRUST, TRUSTEE", "Class Desc": "Vacant", "Zipcode": "", "Longitude": -74.172915622028, "NetValue": 0, "Most Recent Inspection": "05-10-2016", "Lot": 30, "Latitude": 40.71961283, "_id": {"$oid": "58c9259116870f9dd95da6f7"}, "Owner Address": "9990 RICHMOND AVE #400", "Block": 1166, "City, State": "SOUTH HOUSTON, TX"}, {"Vital Street Name": "BROAD ST", "Vital House Number": 1011, "Owner Name": "LIP LIFE REALTY INC C/O BYUNG JUN", "Class Desc": "Vacant", "Zipcode": 7643, "Longitude": -74.17675316076, "NetValue": 0, "Most Recent Inspection": "09-03-2015", "Lot": 3, "Latitude": 40.72872799, "_id": {"$oid": "58c9259116870f9dd95da6f8"}, "Owner Address": "15 LIBERTY ST", "Block": 118, "City, State": "LITTLE FERRY, NJ"}, {"Vital Street Name": "EMMET ST", "Vital House Number": 171, "Owner Name": "171 EMMET ST LLC,", "Class Desc": "Vacant", "Zipcode": "", "Longitude": -74.176675504223, "NetValue": 0, "Most Recent Inspection": "05-24-2016", "Lot": 26, "Latitude": 40.71886541, "_id": {"$oid": "58c9259116870f9dd95da6f9"}, "Owner Address": "39 EMPIRE LN", "Block": 1180, "City, State": "LAKEWOOD, NJ"}, {"Vital Street Name": "EMMET ST", "Vital House Number": 161, "Owner Name": "EVERGREEN PROPERTY SOLUTIONS, LLC.", "Class Desc": "Vacant", "Zipcode": 7105, "Longitude": -74.177085002545, "NetValue": 0, "Most Recent Inspection": "05-24-2016", "Lot": 21, "Latitude": 40.71900609, "_id": {"$oid": "58c9259116870f9dd95da6fa"}, "Owner Address": "PO BOX 278", "Block": 1180, "City, State": "LIVINGSTON, NJ"}, {"Vital Street Name": "WASHINGTON ST", "Vital House Number": 517, "Owner Name": "RIVERA, DIANE", "Class Desc": "Vacant", "Zipcode": "", "Longitude": -74.180463025313, "NetValue": 0, "Most Recent Inspection": "05-11-2015", "Lot": 41, "Latitude": 40.7272075, "_id": {"$oid": "58c9259116870f9dd95da6fb"}, "Owner Address": "644 RIDGE ST", "Block": 122, "City, State": "NEWARK, NJ"}, {"Vital Street Name": "CLINTON AVE", "Vital House Number": "97-99", "Owner Name": "VULCAN PIONEERS OF N J INC", "Class Desc": "Vacant", "Zipcode": "", "Longitude": -74.181893017544, "NetValue": 0, "Most Recent Inspection": "06-08-2016", "Lot": 54, "Latitude": 40.7258293, "_id": {"$oid": "58c9259116870f9dd95da6fc"}, "Owner Address": "PO BOX 937", "Block": 123, "City, State": "NEWARK, NJ"}, {"Vital Street Name": "MULBERRY ST", "Vital House Number": 111, "Owner Name": "DAVIS, KEITH D.", "Class Desc": "", "Zipcode": "", "Longitude": "", "NetValue": 0, "Most Recent Inspection": "", "Lot": 5.14, "Latitude": "", "_id": {"$oid": "58c9259116870f9dd95da6fd"}, "Owner Address": "111 MULBERRY ST APT 5N", "Block": 147.01, "City, State": "NEWARK, NJ"}, {"Vital Street Name": "MULBERRY ST", "Vital House Number": 111, "Owner Name": "US BANK NATIONAL ASSOCIATION", "Class Desc": "Vacant", "Zipcode": "", "Longitude": "", "NetValue": 0, "Most Recent Inspection": "", "Lot": 1.02, "Latitude": "", "_id": {"$oid": "58c9259116870f9dd95da6fe"}, "Owner Address": "1661 WORTHINGTON RD.#100", "Block": 147.01, "City, State": "WEST PALM BEACH, FL"}, {"Vital Street Name": "TILLINGHAST ST", "Vital House Number": 82, "Owner Name": "BAILEY, ROSE", "Class Desc": "Abandoned", "Zipcode": 7108, "Longitude": -74.210168297612, "NetValue": 0, "Most Recent Inspection": "05-23-2016", "Lot": 43, "Latitude": 40.71870601, "_id": {"$oid": "58c9259116870f9dd95da6ff"}, "Owner Address": "82 TILLINGHAST ST", "Block": 159.01, "City, State": "NEWARK, NJ"}, {"Vital Street Name": "LITTLETON AVE", "Vital House Number": "191-193", "Owner Name": "DUHART, DEBRA K.", "Class Desc": "Vacant", "Zipcode": 7103, "Longitude": -74.195820926344, "NetValue": 0, "Most Recent Inspection": "02-24-2017", "Lot": 11, "Latitude": 40.74070171, "_id": {"$oid": "58c9259116870f9dd95da700"}, "Owner Address": "PO BOX 10031", "Block": 1778, "City, State": "NEWARK, NJ"}, {"Vital Street Name": "LITTLETON AVE", "Vital House Number": "187-189", "Owner Name": "T PULLERS 3 LLC,", "Class Desc": "Vacant", "Zipcode": "", "Longitude": -74.195756424278, "NetValue": 0, "Most Recent Inspection": "02-24-2017", "Lot": 9, "Latitude": 40.74083297, "_id": {"$oid": "58c9259116870f9dd95da701"}, "Owner Address": "31 VOSE AVE #272", "Block": 1778, "City, State": "SOUTH ORANGE, NJ"}, {"Vital Street Name": "S 6TH ST", "Vital House Number": 188, "Owner Name": "CONYERS NETTIE M", "Class Desc": "Abandoned", "Zipcode": "", "Longitude": -74.195925639422, "NetValue": 0, "Most Recent Inspection": "09-29-2016", "Lot": 60, "Latitude": 40.74127359, "_id": {"$oid": "58c9259116870f9dd95da702"}, "Owner Address": "PO BOX 3115", "Block": 1778, "City, State": "NEWARK, NJ"}, {"Vital Street Name": "S 6TH ST", "Vital House Number": "211-213", "Owner Name": "COAGUILA, ERICK G", "Class Desc": "Vacant", "Zipcode": "", "Longitude": -74.196852480332, "NetValue": 0, "Most Recent Inspection": "06-16-2016", "Lot": 21, "Latitude": 40.74064308, "_id": {"$oid": "58c9259116870f9dd95da703"}, "Owner Address": "211 213 SOUTH SIXTH ST", "Block": 1779, "City, State": "NEWARK, NJ"}, {"Vital Street Name": "S 6TH ST", "Vital House Number": 215, "Owner Name": "EVOLUTIONARY GROUP INVESTMENTS", "Class Desc": "Vacant", "Zipcode": "", "Longitude": -74.19689222455, "NetValue": 0, "Most Recent Inspection": "06-16-2016", "Lot": 22, "Latitude": 40.74056269, "_id": {"$oid": "58c9259116870f9dd95da704"}, "Owner Address": "648 CENTER AVE.", "Block": 1779, "City, State": "RIDGEFIELD,NJ"}, {"Vital Street Name": "S 7TH ST", "Vital House Number": 228, "Owner Name": "GORDON EDWARD E. & VELMA", "Class Desc": "Vacant", "Zipcode": "", "Longitude": -74.197041364676, "NetValue": 0, "Most Recent Inspection": "04-12-2016", "Lot": 61, "Latitude": 40.74105608, "_id": {"$oid": "58c9259116870f9dd95da705"}, "Owner Address": "228 S 7TH ST", "Block": 1779, "City, State": "NEWARK, NJ"}, {"Vital Street Name": "S 7TH ST", "Vital House Number": 255, "Owner Name": "FEDERAL NATIONAL MORTGAGE ASSOC", "Class Desc": "Abandoned", "Zipcode": "", "Longitude": -74.198008020253, "NetValue": 0, "Most Recent Inspection": "06-17-2016", "Lot": 30, "Latitude": 40.74033014, "_id": {"$oid": "58c9259116870f9dd95da706"}, "Owner Address": "1900 MARKET ST", "Block": 1780, "City, State": "PHILADELPHIA, PA"}, {"Vital Street Name": "13TH AVE", "Vital House Number": 350, "Owner Name": "350 13TH AVE LLC,", "Class Desc": "Abandoned", "Zipcode": "", "Longitude": -74.197420746326, "NetValue": 0, "Most Recent Inspection": "08-18-2016", "Lot": 5, "Latitude": 40.74181262, "_id": {"$oid": "58c9259116870f9dd95da707"}, "Owner Address": "95 NORTH WASHINGTON AVE.", "Block": 1780, "City, State": "BERGENFIELD,NJ"}, {"Vital Street Name": "13TH AVE", "Vital House Number": 348, "Owner Name": "KEYS, NIKHIL", "Class Desc": "Abandoned", "Zipcode": "", "Longitude": -74.197336349436, "NetValue": 0, "Most Recent Inspection": "04-14-2016", "Lot": 6, "Latitude": 40.74178894, "_id": {"$oid": "58c9259116870f9dd95da708"}, "Owner Address": "348 13TH AVE.", "Block": 1780, "City, State": "NEWARK, NJ"}, {"Vital Street Name": "S 7TH ST", "Vital House Number": 253, "Owner Name": "HARNESS HOMES BORROWER II,LLC", "Class Desc": "Vacant", "Zipcode": "", "Longitude": -74.197976270772, "NetValue": 0, "Most Recent Inspection": "06-17-2016", "Lot": 29, "Latitude": 40.74039434, "_id": {"$oid": "58c9259116870f9dd95da709"}, "Owner Address": "902 BROADWAY 6TH FL", "Block": 1780, "City, State": "NEW YORK, NY"}, {"Vital Street Name": "S 7TH ST", "Vital House Number": 241, "Owner Name": "HOUSING AND URBAN DEVELOPMENT", "Class Desc": "Abandoned", "Zipcode": "", "Longitude": -74.197791189762, "NetValue": 0, "Most Recent Inspection": "06-17-2016", "Lot": 23, "Latitude": 40.74076863, "_id": {"$oid": "58c9259116870f9dd95da70a"}, "Owner Address": "1 NEWARK CENTER", "Block": 1780, "City, State": "NEWARK, NJ"}, {"Vital Street Name": "S 7TH ST", "Vital House Number": 231, "Owner Name": "CITY OF NEWARK", "Class Desc": "Abandoned", "Zipcode": "", "Longitude": -74.19762647074, "NetValue": 0, "Most Recent Inspection": "06-17-2016", "Lot": 18, "Latitude": 40.7411013, "_id": {"$oid": "58c9259116870f9dd95da70b"}, "Owner Address": "920 BROAD ST", "Block": 1780, "City, State": "NEWARK, NJ"}, {"Vital Street Name": "13TH AVE", "Vital House Number": "344-346", "Owner Name": "LANDRUM, SAVANNAH E.", "Class Desc": "Abandoned", "Zipcode": "", "Longitude": -74.19720898755, "NetValue": 0, "Most Recent Inspection": "08-18-2016", "Lot": 7, "Latitude": 40.7417536, "_id": {"$oid": "58c9259116870f9dd95da70c"}, "Owner Address": "344 13TH AVE", "Block": 1780, "City, State": "NEWARK, NJ"}, {"Vital Street Name": "SOUTH ORANGE AVE", "Vital House Number": 327, "Owner Name": "CITY OF NEWARK", "Class Desc": "Abandoned", "Zipcode": "", "Longitude": -74.198565380993, "NetValue": 0, "Most Recent Inspection": "01-29-2016", "Lot": 40, "Latitude": 40.73991249, "_id": {"$oid": "58c9259116870f9dd95da70d"}, "Owner Address": "920 BROAD ST", "Block": 1780, "City, State": "NEWARK NJ"}, {"Vital Street Name": "S 8TH ST", "Vital House Number": 252, "Owner Name": "KINGS INVESTMENTS LLC", "Class Desc": "Vacant", "Zipcode": "", "Longitude": -74.197837891919, "NetValue": 0, "Most Recent Inspection": "03-09-2016", "Lot": 63, "Latitude": 40.74145433, "_id": {"$oid": "58c9259116870f9dd95da70e"}, "Owner Address": "PO BOX 565", "Block": 1780, "City, State": "HOBOKEN, NJ"}, {"Vital Street Name": "13TH AVE", "Vital House Number": "370-374", "Owner Name": "OSCAR CONSTRUCTION S,", "Class Desc": "Abandoned", "Zipcode": "", "Longitude": -74.19849238589, "NetValue": 0, "Most Recent Inspection": "08-18-2016", "Lot": 4, "Latitude": 40.74222074, "_id": {"$oid": "58c9259116870f9dd95da70f"}, "Owner Address": "51 GIBRALTAR DR", "Block": 1781, "City, State": "MORRIS PLAINS, NJ"}, {"Vital Street Name": "S 9TH ST", "Vital House Number": 270, "Owner Name": "MCELDERRY, MARK", "Class Desc": "Vacant", "Zipcode": "", "Longitude": -74.198528342205, "NetValue": 0, "Most Recent Inspection": "09-30-2016", "Lot": 3, "Latitude": 40.74215456, "_id": {"$oid": "58c9259116870f9dd95da710"}, "Owner Address": "2783 MARION AVE", "Block": 1781, "City, State": "BRONX, NY"}, {"Vital Street Name": "S 9TH ST", "Vital House Number": 298, "Owner Name": "PATTERSON, SHELAGH W", "Class Desc": "Vacant", "Zipcode": "", "Longitude": -74.198941271183, "NetValue": 0, "Most Recent Inspection": "09-30-2016", "Lot": 57, "Latitude": 40.74125235, "_id": {"$oid": "58c9259116870f9dd95da711"}, "Owner Address": "138-162 DR. MLK BLVD.", "Block": 1781, "City, State": "NEWARK, NJ"}, {"Vital Street Name": "S 9TH ST", "Vital House Number": "296-", "Owner Name": "BUSH, DANIELLE", "Class Desc": "Vacant", "Zipcode": "", "Longitude": -74.198922212383, "NetValue": 0, "Most Recent Inspection": "09-30-2016", "Lot": 74, "Latitude": 40.74129093, "_id": {"$oid": "58c9259116870f9dd95da712"}, "Owner Address": "1439 LINBARGER AVE", "Block": 1781, "City, State": "PLAINFIELD, NJ"}, {"Vital Street Name": "S 8TH ST", "Vital House Number": 235, "Owner Name": "COMMONWEALTH HOLDINGS,LLC", "Class Desc": "Vacant", "Zipcode": "", "Longitude": -74.19811132694, "NetValue": 0, "Most Recent Inspection": "03-09-2016", "Lot": 5, "Latitude": 40.74211637, "_id": {"$oid": "58c9259116870f9dd95da713"}, "Owner Address": "P.O. BOX 629", "Block": 1781, "City, State": "BLOOMFIELD,NJ"}, {"Vital Street Name": "S 8TH ST", "Vital House Number": "257-259", "Owner Name": "U.S. BANK TRUST, N.A,", "Class Desc": "Vacant", "Zipcode": "", "Longitude": -74.198487434965, "NetValue": 0, "Most Recent Inspection": "", "Lot": 16, "Latitude": 40.74139082, "_id": {"$oid": "58c9259116870f9dd95da714"}, "Owner Address": "13801 WIRELESS WAY", "Block": 1781, "City, State": "OKLAHOMA CITY,OK"}, {"Vital Street Name": "S 9TH ST", "Vital House Number": 283, "Owner Name": "STACHNICK, C. STANLEY & CHAME,CEZAR", "Class Desc": "Vacant", "Zipcode": "", "Longitude": -74.199259152718, "NetValue": 0, "Most Recent Inspection": "09-30-2016", "Lot": 13, "Latitude": 40.74186011, "_id": {"$oid": "58c9259116870f9dd95da715"}, "Owner Address": "283 S 9TH ST APT 1", "Block": 1782, "City, State": "NEWARK, NJ"}, {"Vital Street Name": "S 9TH ST", "Vital House Number": 293, "Owner Name": "FANNIN, DEVON", "Class Desc": "Vacant", "Zipcode": "", "Longitude": -74.199417951167, "NetValue": 0, "Most Recent Inspection": "09-30-2016", "Lot": 18, "Latitude": 40.74153891, "_id": {"$oid": "58c9259116870f9dd95da716"}, "Owner Address": "293 S 9TH ST.", "Block": 1782, "City, State": "NEWARK, NJ"}, {"Vital Street Name": "S 10TH ST", "Vital House Number": 312, "Owner Name": "O'NEAL, DOROTHY & ALTON, ROBERT", "Class Desc": "Vacant", "Zipcode": "", "Longitude": -74.199563656533, "NetValue": 0, "Most Recent Inspection": "05-10-2016", "Lot": 65, "Latitude": 40.74202652, "_id": {"$oid": "58c9259116870f9dd95da717"}, "Owner Address": "312 S 10TH ST", "Block": 1782, "City, State": "NEWARK, NJ"}, {"Vital Street Name": "S 10TH ST", "Vital House Number": "314-316", "Owner Name": "SINGLETARY, RICHARD", "Class Desc": "Vacant", "Zipcode": "", "Longitude": -74.199608171688, "NetValue": 0, "Most Recent Inspection": "09-02-2016", "Lot": 64, "Latitude": 40.74193645, "_id": {"$oid": "58c9259116870f9dd95da718"}, "Owner Address": "314 S 10TH ST", "Block": 1782, "City, State": "NEWARK, NJ"}, {"Vital Street Name": "S 9TH ST", "Vital House Number": 295, "Owner Name": "MOUNT PROSPECT PROPERTIES", "Class Desc": "Abandoned", "Zipcode": "", "Longitude": -74.199449738545, "NetValue": 0, "Most Recent Inspection": "09-30-2016", "Lot": 19, "Latitude": 40.74147462, "_id": {"$oid": "58c9259116870f9dd95da719"}, "Owner Address": "PO BOX 630", "Block": 1782, "City, State": "BLOOMFIELD, NJ"}, {"Vital Street Name": "13TH AVE", "Vital House Number": 406, "Owner Name": "FRANCOIS, JEAN WATSON", "Class Desc": "Abandoned", "Zipcode": "", "Longitude": -74.200395873832, "NetValue": 0, "Most Recent Inspection": "04-14-2016", "Lot": 1, "Latitude": 40.74266679, "_id": {"$oid": "58c9259116870f9dd95da71a"}, "Owner Address": "115 MANOR AVE. #2A", "Block": 1783, "City, State": "HARRISON,NJ"}, {"Vital Street Name": "S 11TH ST", "Vital House Number": 382, "Owner Name": "BALBOA, MARIA T", "Class Desc": "Abandoned", "Zipcode": "", "Longitude": -74.201046369864, "NetValue": 0, "Most Recent Inspection": "09-07-2016", "Lot": 48, "Latitude": 40.74105567, "_id": {"$oid": "58c9259116870f9dd95da71b"}, "Owner Address": "382 S 11TH ST", "Block": 1783, "City, State": "NEWARK, NJ"}, {"Vital Street Name": "", "Vital House Number": "", "Owner Name": "", "Class Desc": "Vacant", "Zipcode": "", "Longitude": "", "NetValue": "", "Most Recent Inspection": "", "Lot": "", "Latitude": "", "_id": {"$oid": "58c9259116870f9dd95da71c"}, "Owner Address": "", "Block": 1783, "City, State": ""}, {"Vital Street Name": "S 10TH ST", "Vital House Number": "341-343", "Owner Name": "FIRST DATA FILING LL,", "Class Desc": "Vacant", "Zipcode": "", "Longitude": -74.200597038181, "NetValue": 0, "Most Recent Inspection": "09-02-2016", "Lot": 28, "Latitude": 40.741184, "_id": {"$oid": "58c9259116870f9dd95da71d"}, "Owner Address": "8 AMANDA COURT,ST", "Block": 1783, "City, State": "MONSEY,NY"}, {"Vital Street Name": "S 11TH ST", "Vital House Number": "378-380", "Owner Name": "JOHNSON, TODD", "Class Desc": "Abandoned", "Zipcode": "", "Longitude": -74.200998801328, "NetValue": 0, "Most Recent Inspection": "09-07-2016", "Lot": 49, "Latitude": 40.74115206, "_id": {"$oid": "58c9259116870f9dd95da71e"}, "Owner Address": "1 MONROE DR", "Block": 1783, "City, State": "MAPLE SHADE, NJ"}, {"Vital Street Name": "S 11TH ST", "Vital House Number": 369, "Owner Name": "ECNJ PROPERTIES II L,", "Class Desc": "Abandoned", "Zipcode": 7107, "Longitude": -74.20136778057, "NetValue": 0, "Most Recent Inspection": "04-29-2016", "Lot": 24, "Latitude": 40.74165367, "_id": {"$oid": "58c9259116870f9dd95da71f"}, "Owner Address": "806 S 13TH ST", "Block": 1784, "City, State": "NEWARK, NJ"}, {"Vital Street Name": "S 11TH ST", "Vital House Number": 373, "Owner Name": "AJAYI, SAMUEL", "Class Desc": "Abandoned", "Zipcode": "", "Longitude": -74.201443791767, "NetValue": 0, "Most Recent Inspection": "04-29-2016", "Lot": 26, "Latitude": 40.74149935, "_id": {"$oid": "58c9259116870f9dd95da720"}, "Owner Address": "373 S 11TH ST", "Block": 1784, "City, State": "NEWARK, NJ"}, {"Vital Street Name": "S 11TH ST", "Vital House Number": 371, "Owner Name": "BANK OF AMERICA, N.A,", "Class Desc": "Abandoned", "Zipcode": "", "Longitude": -74.201405783352, "NetValue": 0, "Most Recent Inspection": "04-29-2016", "Lot": 25, "Latitude": 40.74157651, "_id": {"$oid": "58c9259116870f9dd95da721"}, "Owner Address": "7105 CORPORSTE DR", "Block": 1784, "City, State": "PLANO, TX"}, {"Vital Street Name": "S 11TH ST", "Vital House Number": 355, "Owner Name": "MOTLEY ENTERPRISES,LLC", "Class Desc": "Vacant", "Zipcode": 7107, "Longitude": -74.201177760125, "NetValue": 0, "Most Recent Inspection": "09-07-2016", "Lot": 18, "Latitude": 40.7420395, "_id": {"$oid": "58c9259116870f9dd95da722"}, "Owner Address": "456 NORWOOD ST.", "Block": 1784, "City, State": "EAST ORANGE,NJ"}, {"Vital Street Name": "S 12TH ST", "Vital House Number": 356, "Owner Name": "PERSON, DONALD", "Class Desc": "Abandoned", "Zipcode": 7111, "Longitude": -74.201654087719, "NetValue": 0, "Most Recent Inspection": "05-10-2016", "Lot": 69, "Latitude": 40.74185463, "_id": {"$oid": "58c9259116870f9dd95da723"}, "Owner Address": "268 ORANGE AVE", "Block": 1784, "City, State": "IRVINGTON, NJ"}, {"Vital Street Name": "S 12TH ST", "Vital House Number": "360-362", "Owner Name": "GREENPOINT MORTGAGE,", "Class Desc": "Abandoned", "Zipcode": "", "Longitude": -74.201725393855, "NetValue": 0, "Most Recent Inspection": "03-02-2016", "Lot": 51, "Latitude": 40.74170985, "_id": {"$oid": "58c9259116870f9dd95da724"}, "Owner Address": "101 NORTH PHILLIPS AVE.", "Block": 1784, "City, State": "SIOUX FALLS, SD"}, {"Vital Street Name": "S 11TH ST", "Vital House Number": "339-341", "Owner Name": "NEW JERSEY SCHOOL DE,", "Class Desc": "Vacant", "Zipcode": "", "Longitude": -74.200930673302, "NetValue": 0, "Most Recent Inspection": "03-16-2016", "Lot": 10, "Latitude": 40.74254101, "_id": {"$oid": "58c9259116870f9dd95da725"}, "Owner Address": "PO BOX 991", "Block": 1784, "City, State": "TRENTON, NJ"}, {"Vital Street Name": "S 20TH", "Vital House Number": "379-383", "Owner Name": "CIG RIVER RD LLC,", "Class Desc": "Vacant", "Zipcode": "", "Longitude": -74.209076172455, "NetValue": 0, "Most Recent Inspection": "06-26-2015", "Lot": 13, "Latitude": 40.74431401, "_id": {"$oid": "58c9259116870f9dd95da726"}, "Owner Address": "7 GLENWOOD AVE 311 C", "Block": 1789, "City, State": "EAST ORANGE NJ"}, {"Vital Street Name": "S 20TH ST", "Vital House Number": "387-389", "Owner Name": "S 20 NJ LLC,", "Class Desc": "Vacant", "Zipcode": "", "Longitude": -74.209197503993, "NetValue": 0, "Most Recent Inspection": "09-28-2016", "Lot": 18, "Latitude": 40.74406931, "_id": {"$oid": "58c9259116870f9dd95da727"}, "Owner Address": "156 SKILLMAN ST #2F", "Block": 1789, "City, State": "BROOKLYN, NY"}, {"Vital Street Name": "S 20TH", "Vital House Number": 385, "Owner Name": "KOENIG, WILLIAM", "Class Desc": "Vacant", "Zipcode": "", "Longitude": -74.209146182487, "NetValue": 0, "Most Recent Inspection": "09-28-2016", "Lot": 16, "Latitude": 40.74417361, "_id": {"$oid": "58c9259116870f9dd95da728"}, "Owner Address": "19 SPRUCE PL", "Block": 1789, "City, State": "HO HO KUS, NJ"}, {"Vital Street Name": "GROVE ST", "Vital House Number": 374, "Owner Name": "STRADFORD-HUGGINS FELICIA", "Class Desc": "Abandoned", "Zipcode": "", "Longitude": -74.210303557474, "NetValue": 0, "Most Recent Inspection": "02-03-2017", "Lot": 38, "Latitude": 40.74435705, "_id": {"$oid": "58c9259116870f9dd95da729"}, "Owner Address": "857 NILES RD", "Block": 1789, "City, State": "UNION, NJ"}, {"Vital Street Name": "SOUTH ORANGE AVE", "Vital House Number": "535-537", "Owner Name": "545 SOUTH ORANGE LLC", "Class Desc": "Vacant", "Zipcode": "", "Longitude": -74.209239821613, "NetValue": 0, "Most Recent Inspection": "04-19-2016", "Lot": 20, "Latitude": 40.74379303, "_id": {"$oid": "58c9259116870f9dd95da72a"}, "Owner Address": "111 E JERICHO TPKE", "Block": 1789, "City, State": "MINEOLA, NY"}, {"Vital Street Name": "S 20TH", "Vital House Number": "379-383", "Owner Name": "CIG RIVER RD LLC,", "Class Desc": "Vacant", "Zipcode": "", "Longitude": -74.209076172455, "NetValue": 0, "Most Recent Inspection": "05-10-2016", "Lot": 13, "Latitude": 40.74431401, "_id": {"$oid": "58c9259116870f9dd95da72b"}, "Owner Address": "7 GLENWOOD AVE 311 C", "Block": 1789, "City, State": "EAST ORANGE NJ"}, {"Vital Street Name": "FERDINAND ST", "Vital House Number": "15-17", "Owner Name": "JERSEY MODERN DEVELO,LLC", "Class Desc": "Vacant", "Zipcode": 7106, "Longitude": -74.209348234003, "NetValue": 0, "Most Recent Inspection": "05-10-2016", "Lot": 13, "Latitude": 40.74496978, "_id": {"$oid": "58c9259116870f9dd95da72c"}, "Owner Address": "1010 MCDONALD AVE", "Block": 1789.01, "City, State": "BROOKLYN,NY"}, {"Vital Street Name": "13TH AVE", "Vital House Number": 574, "Owner Name": "TOLBERT WILLIE C AND MAMIE", "Class Desc": "Vacant", "Zipcode": "", "Longitude": -74.209143913326, "NetValue": 0, "Most Recent Inspection": "05-25-2016", "Lot": 28, "Latitude": 40.74519947, "_id": {"$oid": "58c9259116870f9dd95da72d"}, "Owner Address": "574 13TH AVE", "Block": 1789.01, "City, State": "NEWARK, NJ"}, {"Vital Street Name": "GRAIN ST", "Vital House Number": 14, "Owner Name": "GRAIN STREET LLC,", "Class Desc": "", "Zipcode": 7106, "Longitude": -74.20863755796, "NetValue": 0, "Most Recent Inspection": "02-07-2017", "Lot": 19, "Latitude": 40.74582126, "_id": {"$oid": "58c9259116870f9dd95da72e"}, "Owner Address": "14 GRAIN ST", "Block": 1790.01, "City, State": "NEWARK, NJ"}, {"Vital Street Name": "S 18TH ST", "Vital House Number": 391, "Owner Name": "BIG KEITH LLC,", "Class Desc": "Vacant", "Zipcode": "", "Longitude": -74.20748495733, "NetValue": 0, "Most Recent Inspection": "05-10-2016", "Lot": 23, "Latitude": 40.74348372, "_id": {"$oid": "58c9259116870f9dd95da72f"}, "Owner Address": "552 UNION BLVD", "Block": 1791, "City, State": "TOTOWA, NJ"}, {"Vital Street Name": "SOUTH ORANGE AVE", "Vital House Number": "509-511", "Owner Name": "BONAS-PALMER, LAURA . & RAY", "Class Desc": "Vacant", "Zipcode": "", "Longitude": -74.207761283736, "NetValue": 0, "Most Recent Inspection": "04-20-2016", "Lot": 28, "Latitude": 40.7433618, "_id": {"$oid": "58c9259116870f9dd95da730"}, "Owner Address": "237 S. 8TH ST", "Block": 1791, "City, State": "NEWARK, N.J."}, {"Vital Street Name": "S 19TH ST", "Vital House Number": 373, "Owner Name": "HANFORD ENTERPRISES,", "Class Desc": "Vacant", "Zipcode": "", "Longitude": -74.208077217462, "NetValue": 0, "Most Recent Inspection": "01-29-2016", "Lot": 10, "Latitude": 40.74430684, "_id": {"$oid": "58c9259116870f9dd95da731"}, "Owner Address": "375 S 19TH ST.", "Block": 1792, "City, State": "NEWARK, NJ"}, {"Vital Street Name": "S 20TH ST", "Vital House Number": 386, "Owner Name": "CITY OF NEWARK", "Class Desc": "Vacant", "Zipcode": "", "Longitude": -74.20860417079, "NetValue": 0, "Most Recent Inspection": "09-28-2016", "Lot": 31, "Latitude": 40.74401987, "_id": {"$oid": "58c9259116870f9dd95da732"}, "Owner Address": "920 BROAD ST", "Block": 1792, "City, State": "NEWARK NJ"}, {"Vital Street Name": "13TH AVE", "Vital House Number": 527, "Owner Name": "MULBERRY MANAGEMENT,", "Class Desc": "Vacant", "Zipcode": "", "Longitude": -74.206644707334, "NetValue": 0, "Most Recent Inspection": "08-18-2016", "Lot": 27, "Latitude": 40.74489214, "_id": {"$oid": "58c9259116870f9dd95da733"}, "Owner Address": "P.O. BOX 629", "Block": 1793, "City, State": "BLOOMFIELD,NJ"}, {"Vital Street Name": "S 19TH ST", "Vital House Number": 324, "Owner Name": "JAD, ELMOHAMADI", "Class Desc": "Vacant", "Zipcode": 33156, "Longitude": -74.206753063303, "NetValue": 0, "Most Recent Inspection": "05-10-2016", "Lot": 43, "Latitude": 40.74574129, "_id": {"$oid": "58c9259116870f9dd95da734"}, "Owner Address": "324 S 19TH ST", "Block": 1793, "City, State": "NEWARK, NJ"}, {"Vital Street Name": "S 19TH ST", "Vital House Number": 327, "Owner Name": "MURPHY, LINDA", "Class Desc": "Abandoned", "Zipcode": "", "Longitude": -74.207341974858, "NetValue": 0, "Most Recent Inspection": "09-26-2016", "Lot": 20, "Latitude": 40.74579692, "_id": {"$oid": "58c9259116870f9dd95da735"}, "Owner Address": "327 S 19TH ST", "Block": 1794, "City, State": "NEWARK, NJ"}, {"Vital Street Name": "S 19TH ST", "Vital House Number": "291-293", "Owner Name": "291-293 SOUTH 19TH ST,LLC", "Class Desc": "Vacant", "Zipcode": "", "Longitude": -74.2068010133, "NetValue": 0, "Most Recent Inspection": "03-23-2016", "Lot": 2, "Latitude": 40.74689151, "_id": {"$oid": "58c9259116870f9dd95da736"}, "Owner Address": "1346 42ND ST.", "Block": 1794, "City, State": "BROOKLYN,NY"}, {"Vital Street Name": "S 19TH ST", "Vital House Number": 323, "Owner Name": "SERRANO, YARITZA", "Class Desc": "Vacant", "Zipcode": "", "Longitude": -74.207270863806, "NetValue": 0, "Most Recent Inspection": "05-10-2016", "Lot": 17, "Latitude": 40.74594081, "_id": {"$oid": "58c9259116870f9dd95da737"}, "Owner Address": "323 S 19TH ST", "Block": 1794, "City, State": "NEWARK, NJ"}, {"Vital Street Name": "S 20TH ST", "Vital House Number": 346, "Owner Name": "PEOVSKI, BLAGOJ", "Class Desc": "Vacant", "Zipcode": 7042, "Longitude": -74.208074097486, "NetValue": 0, "Most Recent Inspection": "05-10-2016", "Lot": 34, "Latitude": 40.74529086, "_id": {"$oid": "58c9259116870f9dd95da738"}, "Owner Address": "39 N FULLERTON AVE", "Block": 1794, "City, State": "MONTCLAIR, NJ"}, {"Vital Street Name": "S 20TH ST", "Vital House Number": 338, "Owner Name": "FONSECA, ALEX", "Class Desc": "Vacant", "Zipcode": 19103, "Longitude": -74.207853171327, "NetValue": 0, "Most Recent Inspection": "05-10-2016", "Lot": 36, "Latitude": 40.74554289, "_id": {"$oid": "58c9259116870f9dd95da739"}, "Owner Address": "95 E. PASSAIC AVE.", "Block": 1794, "City, State": "BLOOMFIELD, NJ"}, {"Vital Street Name": "S 20TH ST", "Vital House Number": 326, "Owner Name": "CLOWERS, JOVAN", "Class Desc": "Vacant", "Zipcode": "", "Longitude": -74.207662719656, "NetValue": 0, "Most Recent Inspection": "09-28-2016", "Lot": 42, "Latitude": 40.74592827, "_id": {"$oid": "58c9259116870f9dd95da73a"}, "Owner Address": "326 S 20TH ST", "Block": 1794, "City, State": "NEWARK, NJ"}, {"Vital Street Name": "S 20TH ST", "Vital House Number": "298-", "Owner Name": "FRYE, ANDRE RICARDO", "Class Desc": "Vacant", "Zipcode": "", "Longitude": -74.207234183404, "NetValue": 0, "Most Recent Inspection": "09-28-2016", "Lot": 67, "Latitude": 40.74679539, "_id": {"$oid": "58c9259116870f9dd95da73b"}, "Owner Address": "1331 S RACE ST", "Block": 1794, "City, State": "ALLENTOWN, PA"}, {"Vital Street Name": "S 20TH ST", "Vital House Number": 296, "Owner Name": "HAMPTON, SAUNDRA", "Class Desc": "Abandoned", "Zipcode": "", "Longitude": -74.207191856302, "NetValue": 0, "Most Recent Inspection": "09-28-2016", "Lot": 57, "Latitude": 40.74688104, "_id": {"$oid": "58c9259116870f9dd95da73c"}, "Owner Address": "296 S 20TH ST", "Block": 1794, "City, State": "NEWARK, NJ"}, {"Vital Street Name": "S 19TH ST", "Vital House Number": 337, "Owner Name": "337 SOUTH 19TH LLC", "Class Desc": "Vacant", "Zipcode": 7052, "Longitude": -74.207515192636, "NetValue": 0, "Most Recent Inspection": "09-26-2016", "Lot": 25, "Latitude": 40.7454462, "_id": {"$oid": "58c9259116870f9dd95da73d"}, "Owner Address": "1800 MAIN ST", "Block": 1794, "City, State": "BELMAR, NJ"}, {"Vital Street Name": "S 19TH ST", "Vital House Number": 325, "Owner Name": "DRAYTON, SHAWN", "Class Desc": "Vacant", "Zipcode": "", "Longitude": -74.207306420128, "NetValue": 0, "Most Recent Inspection": "09-26-2016", "Lot": 18, "Latitude": 40.74586886, "_id": {"$oid": "58c9259116870f9dd95da73e"}, "Owner Address": "325 S 19TH ST", "Block": 1794, "City, State": "NEWARK, NJ"}, {"Vital Street Name": "S 20TH ST", "Vital House Number": 310, "Owner Name": "HSBC BANK USA, NATIONAL", "Class Desc": "Vacant", "Zipcode": "", "Longitude": -74.20740878236, "NetValue": 0, "Most Recent Inspection": "09-29-2015", "Lot": 50, "Latitude": 40.7464421, "_id": {"$oid": "58c9259116870f9dd95da73f"}, "Owner Address": "9062 OLD ANNAPOLIS RD", "Block": 1794, "City, State": "COLUMBIA, MD"}, {"Vital Street Name": "S 20TH ST", "Vital House Number": "302-", "Owner Name": "FEDERAL NATIONAL MOR,", "Class Desc": "Vacant", "Zipcode": "", "Longitude": -74.207297677847, "NetValue": 0, "Most Recent Inspection": "09-28-2016", "Lot": 64, "Latitude": 40.74666691, "_id": {"$oid": "58c9259116870f9dd95da740"}, "Owner Address": "3900 WISCONSIN AVE NW", "Block": 1794, "City, State": "WASHINGTONG,DC"}, {"Vital Street Name": "13TH AVE", "Vital House Number": 547, "Owner Name": "CITY OF NEWARK", "Class Desc": "Abandoned", "Zipcode": "", "Longitude": -74.207668640581, "NetValue": 0, "Most Recent Inspection": "04-07-2016", "Lot": 29, "Latitude": 40.74523344, "_id": {"$oid": "58c9259116870f9dd95da741"}, "Owner Address": "920 BROAD ST", "Block": 1794, "City, State": "NEWARK, NJ"}, {"Vital Street Name": "13TH AVE", "Vital House Number": "549-551", "Owner Name": "INGRAM, FRED", "Class Desc": "Abandoned", "Zipcode": "", "Longitude": -74.207789906658, "NetValue": 0, "Most Recent Inspection": "08-18-2016", "Lot": 30, "Latitude": 40.74526816, "_id": {"$oid": "58c9259116870f9dd95da742"}, "Owner Address": "549-551 13TH AVE.", "Block": 1794, "City, State": "NEWARK, NJ"}, {"Vital Street Name": "S 20TH ST", "Vital House Number": 330, "Owner Name": "U.S. BANK NATIONAL ASSOC", "Class Desc": "Vacant", "Zipcode": "", "Longitude": -74.207726203973, "NetValue": 0, "Most Recent Inspection": "", "Lot": 40, "Latitude": 40.74579981, "_id": {"$oid": "58c9259116870f9dd95da743"}, "Owner Address": "1661 WORTHINGTON RD #100", "Block": 1794, "City, State": "WEST PALM BEACH, FL"}, {"Vital Street Name": "S 11TH ST", "Vital House Number": 275, "Owner Name": "PERSUAD, NALINI", "Class Desc": "Abandoned", "Zipcode": 7107, "Longitude": -74.19980974635, "NetValue": 0, "Most Recent Inspection": "09-07-2016", "Lot": 8, "Latitude": 40.74480796, "_id": {"$oid": "58c9259116870f9dd95da744"}, "Owner Address": "PO BOX 5283", "Block": 1795, "City, State": "OLD BRIDGE, NJ"}, {"Vital Street Name": "S 11TH ST", "Vital House Number": "317-319", "Owner Name": "BOWLES, TOMMYSENA", "Class Desc": "Abandoned", "Zipcode": "", "Longitude": -74.200504995863, "NetValue": 0, "Most Recent Inspection": "09-07-2016", "Lot": 29, "Latitude": 40.74340155, "_id": {"$oid": "58c9259116870f9dd95da745"}, "Owner Address": "317 S 11TH ST", "Block": 1795, "City, State": "NEWARK, NJ"}, {"Vital Street Name": "S 11TH ST", "Vital House Number": "297-299", "Owner Name": "MONTAGUE JOSHUEA & OPHELIA", "Class Desc": "Vacant", "Zipcode": "", "Longitude": -74.20017490903, "NetValue": 0, "Most Recent Inspection": "05-10-2016", "Lot": 19, "Latitude": 40.74406931, "_id": {"$oid": "58c9259116870f9dd95da746"}, "Owner Address": "2 UNIVERSITY PL", "Block": 1795, "City, State": "EAST ORANGE, NJ"}, {"Vital Street Name": "S 11TH ST", "Vital House Number": 309, "Owner Name": "MOSHE HOME LLC,", "Class Desc": "Vacant", "Zipcode": 11367, "Longitude": -74.20036275945, "NetValue": 0, "Most Recent Inspection": "09-07-2016", "Lot": 25, "Latitude": 40.74368924, "_id": {"$oid": "58c9259116870f9dd95da747"}, "Owner Address": "1118 FEDIRKO COURT", "Block": 1795, "City, State": "LINDEN,NJ"}, {"Vital Street Name": "S 10TH ST", "Vital House Number": 255, "Owner Name": "EVOLUTIONARY MARKETING", "Class Desc": "Vacant", "Zipcode": "", "Longitude": -74.199114346324, "NetValue": 0, "Most Recent Inspection": "01-29-2016", "Lot": 75, "Latitude": 40.74418299, "_id": {"$oid": "58c9259116870f9dd95da748"}, "Owner Address": "648 CENTER STREET", "Block": 1796, "City, State": "RIDGEFIELD, NJ"}, {"Vital Street Name": "S 10TH ST", "Vital House Number": 281, "Owner Name": "DTH REO INC,", "Class Desc": "Abandoned", "Zipcode": "", "Longitude": -74.199545078404, "NetValue": 0, "Most Recent Inspection": "05-01-2015", "Lot": 27, "Latitude": 40.74331264, "_id": {"$oid": "58c9259116870f9dd95da749"}, "Owner Address": "P.O. BOX 5396", "Block": 1796, "City, State": "AUSTIN, TX"}, {"Vital Street Name": "S 10TH ST", "Vital House Number": 251, "Owner Name": "WILLIAMS JAMES & NELLIE", "Class Desc": "Vacant", "Zipcode": "", "Longitude": -74.199068130553, "NetValue": 0, "Most Recent Inspection": "03-10-2016", "Lot": 12, "Latitude": 40.74427636, "_id": {"$oid": "58c9259116870f9dd95da74a"}, "Owner Address": "251 S 10TH ST", "Block": 1796, "City, State": "NEWARK, NJ"}, {"Vital Street Name": "S 10TH ST", "Vital House Number": "257-", "Owner Name": "SANTANA, JOSE", "Class Desc": "Vacant", "Zipcode": "", "Longitude": -74.199173240615, "NetValue": 0, "Most Recent Inspection": "04-04-2016", "Lot": 74, "Latitude": 40.744064, "_id": {"$oid": "58c9259116870f9dd95da74b"}, "Owner Address": "257 S 10TH ST", "Block": 1796, "City, State": "NEWARK, NJ"}, {"Vital Street Name": "S 10TH ST", "Vital House Number": "257-", "Owner Name": "SANTANA, JOSE", "Class Desc": "Vacant", "Zipcode": "", "Longitude": -74.199173240615, "NetValue": 0, "Most Recent Inspection": "", "Lot": 74, "Latitude": 40.744064, "_id": {"$oid": "58c9259116870f9dd95da74c"}, "Owner Address": "257 S 10TH ST", "Block": 1796, "City, State": "NEWARK, NJ"}, {"Vital Street Name": "S 10TH ST", "Vital House Number": 261, "Owner Name": "WELLS FARGO BANK, NA,", "Class Desc": "Vacant", "Zipcode": "", "Longitude": -74.199233136837, "NetValue": 0, "Most Recent Inspection": "", "Lot": 17, "Latitude": 40.74394297, "_id": {"$oid": "58c9259116870f9dd95da74d"}, "Owner Address": "101 NORTH PHILLIPS AVE", "Block": 1796, "City, State": "SIOUX FALLS, SD"}, {"Vital Street Name": "S 10TH ST", "Vital House Number": 260, "Owner Name": "SEWNARINE, DEVINDRA", "Class Desc": "Vacant", "Zipcode": "", "Longitude": -74.198659893692, "NetValue": 0, "Most Recent Inspection": "12-31-2015", "Lot": 51.03, "Latitude": 40.74385497, "_id": {"$oid": "58c9259116870f9dd95da74e"}, "Owner Address": "PO BOX 170102", "Block": 1797, "City, State": "OZONE PARK, NY"}, {"Vital Street Name": "S 10TH ST", "Vital House Number": 248, "Owner Name": "WATSON DREW", "Class Desc": "Vacant", "Zipcode": "", "Longitude": -74.198466292837, "NetValue": 0, "Most Recent Inspection": "09-02-2016", "Lot": 60, "Latitude": 40.74424723, "_id": {"$oid": "58c9259116870f9dd95da74f"}, "Owner Address": "248 S 10TH ST", "Block": 1797, "City, State": "NEWARK, NJ"}, {"Vital Street Name": "12TH AVE", "Vital House Number": 224, "Owner Name": "SELENE FINANCE LP,", "Class Desc": "Vacant", "Zipcode": "", "Longitude": -74.198397228391, "NetValue": 0, "Most Recent Inspection": "05-12-2016", "Lot": 2, "Latitude": 40.7444849, "_id": {"$oid": "58c9259116870f9dd95da750"}, "Owner Address": "9990 RICHMOND AVE 400", "Block": 1797, "City, State": "S HOUSTON TEXAS"}, {"Vital Street Name": "12TH AVE", "Vital House Number": 202, "Owner Name": "PROPERTY ONE TWO THREE LLC", "Class Desc": "Abandoned", "Zipcode": "", "Longitude": -74.197266391004, "NetValue": 0, "Most Recent Inspection": "04-14-2016", "Lot": 5, "Latitude": 40.74415561, "_id": {"$oid": "58c9259116870f9dd95da751"}, "Owner Address": "339 LAFAYETTE ST", "Block": 1798, "City, State": "NEWARK, NJ"}, {"Vital Street Name": "S 8TH ST", "Vital House Number": "208-210", "Owner Name": "SHAW, HASSANA Q", "Class Desc": "Vacant", "Zipcode": "", "Longitude": -74.197080998215, "NetValue": 0, "Most Recent Inspection": "09-29-2016", "Lot": 47, "Latitude": 40.74298951, "_id": {"$oid": "58c9259116870f9dd95da752"}, "Owner Address": "406 HIGHLAND AVE", "Block": 1799, "City, State": "ORANGE, NJ"}, {"Vital Street Name": "S 7TH ST", "Vital House Number": 179, "Owner Name": "MCBRIDE, ALBERT JR.", "Class Desc": "Vacant", "Zipcode": "", "Longitude": -74.196716875802, "NetValue": 0, "Most Recent Inspection": "09-29-2016", "Lot": 21, "Latitude": 40.74294527, "_id": {"$oid": "58c9259116870f9dd95da753"}, "Owner Address": "179 S 7TH ST", "Block": 1799, "City, State": "NEWARK, NJ"}, {"Vital Street Name": "S 7TH ST", "Vital House Number": "153-155", "Owner Name": "CIG RIVER RD LLC,", "Class Desc": "Vacant", "Zipcode": "", "Longitude": -74.196296407417, "NetValue": 0, "Most Recent Inspection": "09-29-2016", "Lot": 9, "Latitude": 40.74372695, "_id": {"$oid": "58c9259116870f9dd95da754"}, "Owner Address": "7 GLENWOOD AVE.#311C", "Block": 1799, "City, State": "EAST ORANGE,NJ"}, {"Vital Street Name": "13TH AVE", "Vital House Number": 349, "Owner Name": "BESS, TIMOTHY", "Class Desc": "Vacant", "Zipcode": "", "Longitude": -74.197202247377, "NetValue": 0, "Most Recent Inspection": "08-18-2016", "Lot": 34, "Latitude": 40.74223665, "_id": {"$oid": "58c9259116870f9dd95da755"}, "Owner Address": "781 SOUTH 10TH ST", "Block": 1799, "City, State": "NEWARK, NJ"}, {"Vital Street Name": "S 8TH ST", "Vital House Number": 184, "Owner Name": "KENNEDY, LATOYA", "Class Desc": "Vacant", "Zipcode": "", "Longitude": -74.196684807523, "NetValue": 0, "Most Recent Inspection": "", "Lot": 59.02, "Latitude": 40.74379113, "_id": {"$oid": "58c9259116870f9dd95da756"}, "Owner Address": "184 S 8TH ST", "Block": 1799, "City, State": "NEWARK, NJ"}, {"Vital Street Name": "BROAD ST", "Vital House Number": 589, "Owner Name": "HG JETSON URBAN RENE,", "Class Desc": "Vacant", "Zipcode": 7102, "Longitude": -74.169670160034, "NetValue": 0, "Most Recent Inspection": "08-05-2015", "Lot": 19, "Latitude": 40.74115678, "_id": {"$oid": "58c9259116870f9dd95da757"}, "Owner Address": "50 PARK PL", "Block": 18, "City, State": "NEWARK, NJ"}, {"Vital Street Name": "S 6TH ST", "Vital House Number": 163, "Owner Name": "NJZ CAPITAL MANAGEMET, LLC", "Class Desc": "Abandoned", "Zipcode": "", "Longitude": -74.19598276706, "NetValue": 0, "Most Recent Inspection": "06-16-2016", "Lot": 28, "Latitude": 40.7423572, "_id": {"$oid": "58c9259116870f9dd95da758"}, "Owner Address": "95 N. WASHINGTON AVE", "Block": 1800, "City, State": "BERGENFIELD, NJ"}, {"Vital Street Name": "S 7TH ST", "Vital House Number": 168, "Owner Name": "168 SOUTH 7TH ST LLC,", "Class Desc": "Vacant", "Zipcode": "", "Longitude": -74.19597262364, "NetValue": 0, "Most Recent Inspection": "04-12-2016", "Lot": 56, "Latitude": 40.74317184, "_id": {"$oid": "58c9259116870f9dd95da759"}, "Owner Address": "1200 CLINTON AVE #210", "Block": 1800, "City, State": "IRVINGTON, NJ"}, {"Vital Street Name": "S 7TH ST", "Vital House Number": 162, "Owner Name": "PMT NPL FINANCING 20,", "Class Desc": "Vacant", "Zipcode": "", "Longitude": -74.195869312713, "NetValue": 0, "Most Recent Inspection": "", "Lot": 59.01, "Latitude": 40.74338065, "_id": {"$oid": "58c9259116870f9dd95da75a"}, "Owner Address": "27001 AGOURA RD. #350", "Block": 1800, "City, State": "CALABASAS,CA"}, {"Vital Street Name": "S 6TH ST", "Vital House Number": 104, "Owner Name": "EBA PROPERTIES LLC,", "Class Desc": "Abandoned", "Zipcode": "", "Longitude": -74.1943174815, "NetValue": 0, "Most Recent Inspection": "06-16-2016", "Lot": 25, "Latitude": 40.74427782, "_id": {"$oid": "58c9259116870f9dd95da75b"}, "Owner Address": "72 BURROUGHS PL", "Block": 1807, "City, State": "BLOOMINGDALE NJ"}, {"Vital Street Name": "S 6TH ST", "Vital House Number": "82-84", "Owner Name": "PHILLIP, ARVIN", "Class Desc": "Abandoned", "Zipcode": "", "Longitude": -74.193971909078, "NetValue": 0, "Most Recent Inspection": "05-11-2016", "Lot": 13.01, "Latitude": 40.74493653, "_id": {"$oid": "58c9259116870f9dd95da75c"}, "Owner Address": "82-84 S. 6TH ST", "Block": 1809, "City, State": "NEWARK, NJ"}, {"Vital Street Name": "LITTLETON AVE", "Vital House Number": 59, "Owner Name": "BURNEY, MARK", "Class Desc": "Abandoned", "Zipcode": "", "Longitude": -74.193455995784, "NetValue": 0, "Most Recent Inspection": "03-03-2017", "Lot": 7, "Latitude": 40.74510641, "_id": {"$oid": "58c9259116870f9dd95da75d"}, "Owner Address": "51 LITTLETON AVE", "Block": 1809, "City, State": "NEWARK, NJ"}, {"Vital Street Name": "S 7TH ST", "Vital House Number": 108, "Owner Name": "AURICCHIO, NEIL", "Class Desc": "Abandoned", "Zipcode": "", "Longitude": -74.194931736494, "NetValue": 0, "Most Recent Inspection": "06-17-2016", "Lot": 53, "Latitude": 40.74526176, "_id": {"$oid": "58c9259116870f9dd95da75e"}, "Owner Address": "108 S 7TH ST", "Block": 1810, "City, State": "NEWARK, NJ"}, {"Vital Street Name": "S 6TH ST", "Vital House Number": 75, "Owner Name": "BROWNSTONE ENTERPRISES", "Class Desc": "Abandoned", "Zipcode": "", "Longitude": -74.194455376972, "NetValue": 0, "Most Recent Inspection": "06-17-2016", "Lot": 8, "Latitude": 40.74534902, "_id": {"$oid": "58c9259116870f9dd95da75f"}, "Owner Address": "116 S SHORE DR", "Block": 1810, "City, State": "SOUTH AMBOY, NJ"}, {"Vital Street Name": "S 7TH ST", "Vital House Number": 114, "Owner Name": "LUDENA, MARIANO &ESTEBAN, CELINA", "Class Desc": "Abandoned", "Zipcode": "", "Longitude": -74.195004166579, "NetValue": 0, "Most Recent Inspection": "04-12-2016", "Lot": 51, "Latitude": 40.74510831, "_id": {"$oid": "58c9259116870f9dd95da760"}, "Owner Address": "2159 1ST AVE. #2A", "Block": 1810, "City, State": "NEW YORK,NY"}, {"Vital Street Name": "S 7TH ST", "Vital House Number": 116, "Owner Name": "HMO CAPITAL 1 LLC", "Class Desc": "Abandoned", "Zipcode": "", "Longitude": -74.19504049647, "NetValue": 0, "Most Recent Inspection": "04-12-2016", "Lot": 49, "Latitude": 40.74503308, "_id": {"$oid": "58c9259116870f9dd95da761"}, "Owner Address": "544 SPRINGFIELD AVE", "Block": 1810, "City, State": "NEWARK, NJ"}, {"Vital Street Name": "S 6TH ST", "Vital House Number": "83-85", "Owner Name": "JAIVIENT INVESTMENTS,LLC", "Class Desc": "Abandoned", "Zipcode": "", "Longitude": -74.19459283867, "NetValue": 0, "Most Recent Inspection": "06-17-2016", "Lot": 10.02, "Latitude": 40.74505811, "_id": {"$oid": "58c9259116870f9dd95da762"}, "Owner Address": "776 LAKE STREET", "Block": 1810, "City, State": "NEWARK, NJ"}, {"Vital Street Name": "S 7TH ST", "Vital House Number": 132, "Owner Name": "ROBINSON, JOHN", "Class Desc": "Abandoned", "Zipcode": "", "Longitude": -74.195272885274, "NetValue": 0, "Most Recent Inspection": "04-12-2016", "Lot": 41, "Latitude": 40.74448498, "_id": {"$oid": "58c9259116870f9dd95da763"}, "Owner Address": "132 S 7TH ST", "Block": 1810, "City, State": "NEWARK, NJ"}, {"Vital Street Name": "S 6TH ST", "Vital House Number": 105, "Owner Name": "COSTA, CELSO", "Class Desc": "Vacant", "Zipcode": "", "Longitude": -74.194901184964, "NetValue": 0, "Most Recent Inspection": "06-16-2016", "Lot": 23, "Latitude": 40.74437518, "_id": {"$oid": "58c9259116870f9dd95da764"}, "Owner Address": "105 S 6TH ST", "Block": 1810, "City, State": "NEWARK, NJ"}, {"Vital Street Name": "S 7TH ST", "Vital House Number": 94, "Owner Name": "DAVIS, COLOSSIN  & VIRHUEZ J.", "Class Desc": "Vacant", "Zipcode": "", "Longitude": -74.194804255166, "NetValue": 0, "Most Recent Inspection": "09-29-2016", "Lot": 65, "Latitude": 40.74575111, "_id": {"$oid": "58c9259116870f9dd95da765"}, "Owner Address": "392 KERRIGAN BLVD", "Block": 1810, "City, State": "NEWARK, NJ"}, {"Vital Street Name": "S 7TH ST", "Vital House Number": 124, "Owner Name": "JONES, CLAUDETTE", "Class Desc": "Vacant", "Zipcode": "", "Longitude": -74.1951653686, "NetValue": 0, "Most Recent Inspection": "11-20-2015", "Lot": 45, "Latitude": 40.74474841, "_id": {"$oid": "58c9259116870f9dd95da766"}, "Owner Address": "124 S 7TH ST", "Block": 1810, "City, State": "NEWARK, NJ"}, {"Vital Street Name": "S 6TH ST", "Vital House Number": 77, "Owner Name": "ADONAI, OLATUNDE", "Class Desc": "Vacant", "Zipcode": "", "Longitude": -74.194486413304, "NetValue": 0, "Most Recent Inspection": "03-09-2016", "Lot": 9, "Latitude": 40.74528441, "_id": {"$oid": "58c9259116870f9dd95da767"}, "Owner Address": "3545 78TH ST APT 52", "Block": 1810, "City, State": "JACKSON HEIGHTS, NY"}, {"Vital Street Name": "S 7TH ST", "Vital House Number": 106, "Owner Name": "LIVINGSTON, KEVIN", "Class Desc": "Abandoned", "Zipcode": "", "Longitude": -74.194896569527, "NetValue": 0, "Most Recent Inspection": "09-29-2016", "Lot": 54, "Latitude": 40.74533956, "_id": {"$oid": "58c9259116870f9dd95da768"}, "Owner Address": "106 S 7TH ST", "Block": 1810, "City, State": "NEWARK, NJ"}, {"Vital Street Name": "S 7TH ST", "Vital House Number": 113, "Owner Name": "GURUDEV HOMES LLC", "Class Desc": "Abandoned", "Zipcode": "", "Longitude": -74.195578090256, "NetValue": 0, "Most Recent Inspection": "06-17-2016", "Lot": 17, "Latitude": 40.7452496, "_id": {"$oid": "58c9259116870f9dd95da769"}, "Owner Address": "24 OAK LANE", "Block": 1811, "City, State": "ROSLYN HEIGHTS, NY"}, {"Vital Street Name": "12TH AVE", "Vital House Number": "185-187", "Owner Name": "US BANK TRUST, N.A.", "Class Desc": "Abandoned", "Zipcode": "", "Longitude": -74.196224944504, "NetValue": 0, "Most Recent Inspection": "10-27-2016", "Lot": 27.06, "Latitude": 40.74434905, "_id": {"$oid": "58c9259116870f9dd95da76a"}, "Owner Address": "13801 WIRELESS WAY", "Block": 1811, "City, State": "OKLAHOMA CITY, OK"}, {"Vital Street Name": "S 8TH ST", "Vital House Number": 140, "Owner Name": "GOURDET, GERARD", "Class Desc": "Vacant", "Zipcode": "", "Longitude": -74.195894527986, "NetValue": 0, "Most Recent Inspection": "09-29-2016", "Lot": 52, "Latitude": 40.74539036, "_id": {"$oid": "58c9259116870f9dd95da76b"}, "Owner Address": "411 HIGHLAND TER", "Block": 1811, "City, State": "ORANGE, NJ"}, {"Vital Street Name": "S 7TH ST", "Vital House Number": 121, "Owner Name": "BRILLANT,ARMAND", "Class Desc": "Vacant", "Zipcode": "", "Longitude": -74.19571458534, "NetValue": 0, "Most Recent Inspection": "01-04-2016", "Lot": 22, "Latitude": 40.74497346, "_id": {"$oid": "58c9259116870f9dd95da76c"}, "Owner Address": "121 S 7TH STREET", "Block": 1811, "City, State": "NEWARK,NJ"}, {"Vital Street Name": "S 8TH ST", "Vital House Number": "146-148", "Owner Name": "RESTO, JACQUELINE", "Class Desc": "Vacant", "Zipcode": "", "Longitude": -74.196013551866, "NetValue": 0, "Most Recent Inspection": "09-29-2016", "Lot": 48, "Latitude": 40.74514956, "_id": {"$oid": "58c9259116870f9dd95da76d"}, "Owner Address": "146-148 SOUTH 8TH ST", "Block": 1811, "City, State": "NEWARK, NJ"}, {"Vital Street Name": "S 8TH ST", "Vital House Number": "170-172", "Owner Name": "CEPEDA, DIGNORAH & LENIN", "Class Desc": "Vacant", "Zipcode": "", "Longitude": -74.196437138215, "NetValue": 0, "Most Recent Inspection": "09-29-2016", "Lot": 37, "Latitude": 40.74438919, "_id": {"$oid": "58c9259116870f9dd95da76e"}, "Owner Address": "170-172 SO 8TH STREE", "Block": 1811, "City, State": "NEWARK, NJ"}, {"Vital Street Name": "S 7TH ST", "Vital House Number": 123, "Owner Name": "BANK OF AMERICA, N.A,", "Class Desc": "Abandoned", "Zipcode": "", "Longitude": -74.195746319364, "NetValue": 0, "Most Recent Inspection": "04-12-2016", "Lot": 23, "Latitude": 40.74490927, "_id": {"$oid": "58c9259116870f9dd95da76f"}, "Owner Address": "7105 CORPORATE DR.", "Block": 1811, "City, State": "PLANO,TX"}, {"Vital Street Name": "S 7TH ST", "Vital House Number": 105, "Owner Name": "PEARCE, RONALD P.", "Class Desc": "Abandoned", "Zipcode": "", "Longitude": -74.195457367172, "NetValue": 0, "Most Recent Inspection": "06-17-2016", "Lot": 14, "Latitude": 40.74549378, "_id": {"$oid": "58c9259116870f9dd95da770"}, "Owner Address": "3005 W 11TH ST", "Block": 1811, "City, State": "CHESTER, PA"}, {"Vital Street Name": "S 9TH ST", "Vital House Number": 164, "Owner Name": "164 SOUTH NINTH INVESTMENTS,LLC", "Class Desc": "Vacant", "Zipcode": "", "Longitude": -74.196647871223, "NetValue": 0, "Most Recent Inspection": "09-30-2016", "Lot": 56, "Latitude": 40.74589494, "_id": {"$oid": "58c9259116870f9dd95da771"}, "Owner Address": "164 S 9TH ST", "Block": 1812, "City, State": "NEWARK, NJ"}, {"Vital Street Name": "S 9TH ST", "Vital House Number": 188, "Owner Name": "188 SOUTH 9TH, LLC,", "Class Desc": "Abandoned", "Zipcode": "", "Longitude": -74.197033017963, "NetValue": 0, "Most Recent Inspection": "09-30-2016", "Lot": 44, "Latitude": 40.7451152, "_id": {"$oid": "58c9259116870f9dd95da772"}, "Owner Address": "646 N. MEADOW DR.", "Block": 1812, "City, State": "BOUND BROOK,NJ"}, {"Vital Street Name": "12TH AVE", "Vital House Number": "199-201", "Owner Name": "NATIONAL COMMUNITY CAPITAL FUND LLC", "Class Desc": "Abandoned", "Zipcode": "", "Longitude": -74.197012670448, "NetValue": 0, "Most Recent Inspection": "04-14-2016", "Lot": 33, "Latitude": 40.74457007, "_id": {"$oid": "58c9259116870f9dd95da773"}, "Owner Address": "200 E 5TH ST #121", "Block": 1812, "City, State": "NAPERVILLE. IL"}, {"Vital Street Name": "S 8TH ST", "Vital House Number": "143-145", "Owner Name": "BROWN, BARBARA J.", "Class Desc": "Vacant", "Zipcode": "", "Longitude": -74.196516485012, "NetValue": 0, "Most Recent Inspection": "05-17-2016", "Lot": 19, "Latitude": 40.74538061, "_id": {"$oid": "58c9259116870f9dd95da774"}, "Owner Address": "143-145 SO. 8TH ST.", "Block": 1812, "City, State": "NEWARK, NJ"}, {"Vital Street Name": "S 8TH ST", "Vital House Number": 141, "Owner Name": "TRI CITY PEOPLE CORP", "Class Desc": "Vacant", "Zipcode": "", "Longitude": -74.196468896078, "NetValue": 0, "Most Recent Inspection": "05-17-2016", "Lot": 18, "Latitude": 40.74547697, "_id": {"$oid": "58c9259116870f9dd95da775"}, "Owner Address": "55 WASHINGTON ST", "Block": 1812, "City, State": "EAST ORANGE, NJ"}, {"Vital Street Name": "S 8TH ST", "Vital House Number": 123, "Owner Name": "NATIONSTAR MORTGAGE,", "Class Desc": "Vacant", "Zipcode": "", "Longitude": -74.196191232897, "NetValue": 0, "Most Recent Inspection": "03-02-2016", "Lot": 9.01, "Latitude": 40.74603898, "_id": {"$oid": "58c9259116870f9dd95da776"}, "Owner Address": "8950 CYPRESS WATERS BLVD", "Block": 1812, "City, State": "COPPELL,TX"}, {"Vital Street Name": "S 8TH ST", "Vital House Number": "135-137", "Owner Name": "HOUSE, CHIFFON", "Class Desc": "Abandoned", "Zipcode": "", "Longitude": -74.196389576992, "NetValue": 0, "Most Recent Inspection": "03-09-2016", "Lot": 15, "Latitude": 40.74563755, "_id": {"$oid": "58c9259116870f9dd95da777"}, "Owner Address": "505 E 120TH ST", "Block": 1812, "City, State": "NEW YORK, NY"}, {"Vital Street Name": "S 9TH ST", "Vital House Number": 174, "Owner Name": "SHARKA, ITZIK", "Class Desc": "Vacant", "Zipcode": "", "Longitude": -74.196819826875, "NetValue": 0, "Most Recent Inspection": "12-05-2016", "Lot": 51, "Latitude": 40.74554683, "_id": {"$oid": "58c9259116870f9dd95da778"}, "Owner Address": "PO BOX 805", "Block": 1812, "City, State": "EAST ORANGE, NJ"}, {"Vital Street Name": "S 10TH ST", "Vital House Number": 224, "Owner Name": "DAVID, A. JR. & CHAMBERS, W.", "Class Desc": "Abandoned", "Zipcode": 7107, "Longitude": -74.19800437365, "NetValue": 0, "Most Recent Inspection": "01-04-2016", "Lot": 41, "Latitude": 40.74518027, "_id": {"$oid": "58c9259116870f9dd95da779"}, "Owner Address": "224 S 10TH ST.", "Block": 1813, "City, State": "NEWARK, NJ"}, {"Vital Street Name": "S 10TH ST", "Vital House Number": 216, "Owner Name": "LEAGUE 216 SOUTH 10,", "Class Desc": "Vacant", "Zipcode": "", "Longitude": -74.197873757218, "NetValue": 0, "Most Recent Inspection": "05-11-2016", "Lot": 45, "Latitude": 40.74544441, "_id": {"$oid": "58c9259116870f9dd95da77a"}, "Owner Address": "7 OAK PLACE", "Block": 1813, "City, State": "MONTCLAIR NJ"}, {"Vital Street Name": "S 9TH ST", "Vital House Number": 159, "Owner Name": "ARCHIE, LOVELL", "Class Desc": "Vacant", "Zipcode": "", "Longitude": -74.197122768785, "NetValue": 0, "Most Recent Inspection": "05-11-2016", "Lot": 11, "Latitude": 40.74618117, "_id": {"$oid": "58c9259116870f9dd95da77b"}, "Owner Address": "159 S 9TH ST", "Block": 1813, "City, State": "NEWARK, NJ"}, {"Vital Street Name": "S 10TH ST", "Vital House Number": 192, "Owner Name": "CITY OF NEWARK", "Class Desc": "Abandoned", "Zipcode": "", "Longitude": -74.197492718722, "NetValue": 0, "Most Recent Inspection": "05-13-2016", "Lot": 57, "Latitude": 40.74621491, "_id": {"$oid": "58c9259116870f9dd95da77c"}, "Owner Address": "920 BROAD ST", "Block": 1813, "City, State": "NEWARK, NJ"}, {"Vital Street Name": "S 10TH ST", "Vital House Number": 194, "Owner Name": "FAUNTLEROY JASON", "Class Desc": "Abandoned", "Zipcode": "", "Longitude": -74.19752449839, "NetValue": 0, "Most Recent Inspection": "03-10-2016", "Lot": 56, "Latitude": 40.74615064, "_id": {"$oid": "58c9259116870f9dd95da77d"}, "Owner Address": "194 S 10TH ST", "Block": 1813, "City, State": "NEWARK, NJ"}, {"Vital Street Name": "S 9TH ST", "Vital House Number": "155-157", "Owner Name": "ARCHIE, LOVELL", "Class Desc": "Vacant", "Zipcode": "", "Longitude": -74.197075260245, "NetValue": 0, "Most Recent Inspection": "12-05-2016", "Lot": 9, "Latitude": 40.74627704, "_id": {"$oid": "58c9259116870f9dd95da77e"}, "Owner Address": "155-157 SOUTH 9TH ST", "Block": 1813, "City, State": "NEWARK, NJ"}, {"Vital Street Name": "S 10TH ST", "Vital House Number": 205, "Owner Name": "MCCLENDON, CAROLYN", "Class Desc": "Abandoned", "Zipcode": 7107, "Longitude": -74.198255453003, "NetValue": 0, "Most Recent Inspection": "09-02-2016", "Lot": 15, "Latitude": 40.74592342, "_id": {"$oid": "58c9259116870f9dd95da77f"}, "Owner Address": "205 S 10TH ST", "Block": 1814, "City, State": "NEWARK, NJ"}, {"Vital Street Name": "S 10TH ST", "Vital House Number": 221, "Owner Name": "2-4 BALDWIN ASSOCIATESM LLC", "Class Desc": "Vacant", "Zipcode": 7107, "Longitude": -74.198509440074, "NetValue": 0, "Most Recent Inspection": "09-02-2016", "Lot": 23, "Latitude": 40.74540965, "_id": {"$oid": "58c9259116870f9dd95da780"}, "Owner Address": "37-01 LENOX DR", "Block": 1814, "City, State": "FAIR LAWN, NJ"}, {"Vital Street Name": "S 10TH ST", "Vital House Number": 223, "Owner Name": "SOON, BRIAN & SHOBA", "Class Desc": "Abandoned", "Zipcode": "", "Longitude": -74.198540404134, "NetValue": 0, "Most Recent Inspection": "05-14-2015", "Lot": 24, "Latitude": 40.74534505, "_id": {"$oid": "58c9259116870f9dd95da781"}, "Owner Address": "223 S 10TH ST", "Block": 1814, "City, State": "NEWARK, NJ"}, {"Vital Street Name": "S 11TH ST", "Vital House Number": 242, "Owner Name": "230-242 S. 11TH STRE,", "Class Desc": "Abandoned", "Zipcode": 7107, "Longitude": -74.198760712865, "NetValue": 0, "Most Recent Inspection": "09-07-2016", "Lot": 44, "Latitude": 40.74589253, "_id": {"$oid": "58c9259116870f9dd95da782"}, "Owner Address": "35 ROC ETAM RD", "Block": 1814, "City, State": "RNADOLPH, NJ"}, {"Vital Street Name": "12TH AVE", "Vital House Number": 241, "Owner Name": "487 VALLEY ROAD LLC,", "Class Desc": "Abandoned", "Zipcode": "", "Longitude": -74.199171418124, "NetValue": 0, "Most Recent Inspection": "08-18-2016", "Lot": 33, "Latitude": 40.74514089, "_id": {"$oid": "58c9259116870f9dd95da783"}, "Owner Address": "4 HORATICO CT", "Block": 1814, "City, State": "NEWARK, NJ"}, {"Vital Street Name": "S 10TH ST", "Vital House Number": 193, "Owner Name": "WATKINS, ANTOINETTE M. LAMBERT", "Class Desc": "Vacant", "Zipcode": "", "Longitude": -74.1980595804, "NetValue": 0, "Most Recent Inspection": "03-10-2016", "Lot": 9, "Latitude": 40.74632, "_id": {"$oid": "58c9259116870f9dd95da784"}, "Owner Address": "193 S 10TH ST", "Block": 1814, "City, State": "NEWARK, NJ"}, {"Vital Street Name": "S 11TH ST", "Vital House Number": 229, "Owner Name": "ANDERSON, GEORGE", "Class Desc": "Abandoned", "Zipcode": 7107, "Longitude": -74.199006968531, "NetValue": 0, "Most Recent Inspection": "09-07-2016", "Lot": 11, "Latitude": 40.74643409, "_id": {"$oid": "58c9259116870f9dd95da785"}, "Owner Address": "123 BIDWELL AVE", "Block": 1815, "City, State": "JERSEY CITY, NJ"}, {"Vital Street Name": "S 12TH ST", "Vital House Number": 214, "Owner Name": "AMERICAN MUTUAL FUND LLC", "Class Desc": "Vacant", "Zipcode": "", "Longitude": -74.199200006693, "NetValue": 0, "Most Recent Inspection": "05-11-2016", "Lot": 49, "Latitude": 40.74682424, "_id": {"$oid": "58c9259116870f9dd95da786"}, "Owner Address": "10903 81ST CT NE", "Block": 1815, "City, State": "KIRKLAND, WA"}, {"Vital Street Name": "S 11TH ST", "Vital House Number": 259, "Owner Name": "CREDITO, RODRIGO", "Class Desc": "Abandoned", "Zipcode": "", "Longitude": -74.199506531286, "NetValue": 0, "Most Recent Inspection": "09-07-2016", "Lot": 25.01, "Latitude": 40.74546093, "_id": {"$oid": "58c9259116870f9dd95da787"}, "Owner Address": "259 S 11TH ST", "Block": 1815, "City, State": "NEWARK, NJ"}, {"Vital Street Name": "S 11TH ST", "Vital House Number": "221-223", "Owner Name": "AROSTEGUI, MARGARITA", "Class Desc": "Abandoned", "Zipcode": "", "Longitude": -74.198895396363, "NetValue": 0, "Most Recent Inspection": "04-04-2016", "Lot": 7, "Latitude": 40.74666024, "_id": {"$oid": "58c9259116870f9dd95da788"}, "Owner Address": "221-223 11TH STREET", "Block": 1815, "City, State": "NEWARK, NJ"}, {"Vital Street Name": "S 19TH ST", "Vital House Number": 275, "Owner Name": "PETERS, FERNAND C", "Class Desc": "Vacant", "Zipcode": "", "Longitude": -74.206446881543, "NetValue": 0, "Most Recent Inspection": "01-04-2016", "Lot": 28, "Latitude": 40.74760684, "_id": {"$oid": "58c9259116870f9dd95da789"}, "Owner Address": "275 S 19TH ST", "Block": 1817, "City, State": "NEWARK, NJ"}, {"Vital Street Name": "S 19TH ST", "Vital House Number": 251, "Owner Name": "TAVERAS, MANUEL", "Class Desc": "Vacant", "Zipcode": "", "Longitude": -74.206065179647, "NetValue": 0, "Most Recent Inspection": "01-04-2016", "Lot": 16, "Latitude": 40.74837705, "_id": {"$oid": "58c9259116870f9dd95da78a"}, "Owner Address": "251 S 19TH ST", "Block": 1817, "City, State": "NEWARK, NJ"}, {"Vital Street Name": "S 19TH ST", "Vital House Number": 255, "Owner Name": "EBA PROPERTIES LLC,", "Class Desc": "Abandoned", "Zipcode": "", "Longitude": -74.20612877519, "NetValue": 0, "Most Recent Inspection": "01-04-2016", "Lot": 18, "Latitude": 40.74824868, "_id": {"$oid": "58c9259116870f9dd95da78b"}, "Owner Address": "72 BURROUGHS PLACE, #200", "Block": 1817, "City, State": "BLOOMFIELD, NJ"}, {"Vital Street Name": "S 20TH ST", "Vital House Number": 246, "Owner Name": "CITY OF NEWARK", "Class Desc": "Vacant", "Zipcode": "", "Longitude": -74.206307644891, "NetValue": 0, "Most Recent Inspection": "09-28-2016", "Lot": 56, "Latitude": 40.74866617, "_id": {"$oid": "58c9259116870f9dd95da78c"}, "Owner Address": "920 BROAD ST.", "Block": 1817, "City, State": "NEWARK, NJ"}, {"Vital Street Name": "S 19TH ST", "Vital House Number": 261, "Owner Name": "GOLDMAN, JACOB", "Class Desc": "Vacant", "Zipcode": "", "Longitude": -74.206224210896, "NetValue": 0, "Most Recent Inspection": "09-26-2016", "Lot": 21, "Latitude": 40.74805611, "_id": {"$oid": "58c9259116870f9dd95da78d"}, "Owner Address": "11612 57TH ST", "Block": 1817, "City, State": "BROOKLYN, NY"}, {"Vital Street Name": "S 19TH", "Vital House Number": "285-287", "Owner Name": "OTANO, IRIS", "Class Desc": "Vacant", "Zipcode": "", "Longitude": -74.206627124903, "NetValue": 0, "Most Recent Inspection": "05-11-2016", "Lot": 30.03, "Latitude": 40.74724302, "_id": {"$oid": "58c9259116870f9dd95da78e"}, "Owner Address": "12325 82ND AVE", "Block": 1817, "City, State": "KEW GARDENS, NY"}, {"Vital Street Name": "S 20TH", "Vital House Number": "280-282", "Owner Name": "STONE DEVELOPMENT LLC", "Class Desc": "Vacant", "Zipcode": "", "Longitude": -74.206870652846, "NetValue": 0, "Most Recent Inspection": "05-25-2016", "Lot": 38, "Latitude": 40.74753012, "_id": {"$oid": "58c9259116870f9dd95da78f"}, "Owner Address": "41-51 WILSON AVE # 15", "Block": 1817, "City, State": "NEWARK, NJ"}, {"Vital Street Name": "S 20TH ST", "Vital House Number": 248, "Owner Name": "DUBOIS, TERRY", "Class Desc": "Vacant", "Zipcode": "", "Longitude": -74.206339467397, "NetValue": 0, "Most Recent Inspection": "09-28-2016", "Lot": 55, "Latitude": 40.74860204, "_id": {"$oid": "58c9259116870f9dd95da790"}, "Owner Address": "248 S 20TH ST", "Block": 1817, "City, State": "NEWARK, NJ"}, {"Vital Street Name": "S 19TH ST", "Vital House Number": 239, "Owner Name": "FEDERAL NATIONAL MORTGAGE CORP", "Class Desc": "Vacant", "Zipcode": "", "Longitude": -74.205874346783, "NetValue": 0, "Most Recent Inspection": "11-14-2016", "Lot": 10, "Latitude": 40.7487621, "_id": {"$oid": "58c9259116870f9dd95da791"}, "Owner Address": "P.O. BOX 650043", "Block": 1817, "City, State": "DALLAS, TX"}, {"Vital Street Name": "11TH AVE", "Vital House Number": 288, "Owner Name": "CITIMORTGAGE, INC.,", "Class Desc": "Vacant", "Zipcode": "", "Longitude": -74.206136395084, "NetValue": 0, "Most Recent Inspection": "", "Lot": 2, "Latitude": 40.74909354, "_id": {"$oid": "58c9259116870f9dd95da792"}, "Owner Address": "1000 TECHNOLOGY DR", "Block": 1817, "City, State": "OFALLON, MO"}, {"Vital Street Name": "S 18TH ST", "Vital House Number": 259, "Owner Name": "FEDERAL NATIONAL MOR,ASS", "Class Desc": "Vacant", "Zipcode": "", "Longitude": -74.205287345093, "NetValue": 0, "Most Recent Inspection": "05-11-2016", "Lot": 19, "Latitude": 40.74792243, "_id": {"$oid": "58c9259116870f9dd95da793"}, "Owner Address": "3900 WISCONSIN AVE NW", "Block": 1818, "City, State": "WASHINGTON,DC"}, {"Vital Street Name": "S 18TH ST", "Vital House Number": "261-", "Owner Name": "ONEWEST BANK, FBA", "Class Desc": "Vacant", "Zipcode": "", "Longitude": -74.205329754164, "NetValue": 0, "Most Recent Inspection": "05-11-2016", "Lot": 68, "Latitude": 40.74783686, "_id": {"$oid": "58c9259116870f9dd95da794"}, "Owner Address": "888 EAST WALNUT ST", "Block": 1818, "City, State": "PASADENA, CA"}, {"Vital Street Name": "S 18TH ST", "Vital House Number": "245-", "Owner Name": "CLARKE, SHAUNTE", "Class Desc": "Vacant", "Zipcode": "", "Longitude": -74.20507660428, "NetValue": 0, "Most Recent Inspection": "05-11-2016", "Lot": 72, "Latitude": 40.74835021, "_id": {"$oid": "58c9259116870f9dd95da795"}, "Owner Address": "245 1/2 S 18TH ST", "Block": 1818, "City, State": "NEWARK, NJ"}, {"Vital Street Name": "S 18TH ST", "Vital House Number": 273, "Owner Name": "SPINKS LULA", "Class Desc": "Vacant", "Zipcode": "", "Longitude": -74.205499395732, "NetValue": 0, "Most Recent Inspection": "09-21-2016", "Lot": 26, "Latitude": 40.74749456, "_id": {"$oid": "58c9259116870f9dd95da796"}, "Owner Address": "273 S 18TH ST", "Block": 1818, "City, State": "NEWARK, NJ"}, {"Vital Street Name": "S 18TH ST", "Vital House Number": "279-", "Owner Name": "BUCH, DAVID", "Class Desc": "Vacant", "Zipcode": "", "Longitude": -74.20561603924, "NetValue": 0, "Most Recent Inspection": "05-11-2016", "Lot": 29, "Latitude": 40.74725919, "_id": {"$oid": "58c9259116870f9dd95da797"}, "Owner Address": "279 SOUTH 18TH ST.", "Block": 1818, "City, State": "NEWARK, NJ"}, {"Vital Street Name": "S 18TH ST", "Vital House Number": 281, "Owner Name": "JOHNSTON, MARCO", "Class Desc": "Vacant", "Zipcode": "", "Longitude": -74.205637243642, "NetValue": 0, "Most Recent Inspection": "05-11-2016", "Lot": 30, "Latitude": 40.7472164, "_id": {"$oid": "58c9259116870f9dd95da798"}, "Owner Address": "P O BOX 8113", "Block": 1818, "City, State": "NEWARK, NJ"}, {"Vital Street Name": "S 18TH ST", "Vital House Number": 239, "Owner Name": "DOS SANTOS, WELLINGTON  &DIAS, JOAO", "Class Desc": "Vacant", "Zipcode": "", "Longitude": -74.20496394377, "NetValue": 0, "Most Recent Inspection": "04-20-2016", "Lot": 9, "Latitude": 40.74857499, "_id": {"$oid": "58c9259116870f9dd95da799"}, "Owner Address": "239 S 18TH ST", "Block": 1818, "City, State": "NEWARK, NJ"}, {"Vital Street Name": "S 18TH ST", "Vital House Number": 261, "Owner Name": "MEGALLY, ARSANY", "Class Desc": "Vacant", "Zipcode": "", "Longitude": -74.205308543921, "NetValue": 0, "Most Recent Inspection": "09-21-2016", "Lot": 20, "Latitude": 40.74787965, "_id": {"$oid": "58c9259116870f9dd95da79a"}, "Owner Address": "72-42 67TH STREET", "Block": 1818, "City, State": "GLENDALE,NY"}, {"Vital Street Name": "S 12TH ST", "Vital House Number": "186-188", "Owner Name": "REGENCY ENTERPRISES,", "Class Desc": "Vacant", "Zipcode": "", "Longitude": -74.198706598192, "NetValue": 0, "Most Recent Inspection": "01-29-2016", "Lot": 43, "Latitude": 40.74782146, "_id": {"$oid": "58c9259116870f9dd95da79b"}, "Owner Address": "PO BOX 69", "Block": 1825, "City, State": "TOTOWA, NJ"}, {"Vital Street Name": "11TH AVE", "Vital House Number": 131, "Owner Name": "HARVEY, LELA & JACKSON,SYLVIA ETAL", "Class Desc": "Abandoned", "Zipcode": "", "Longitude": -74.198923189079, "NetValue": 0, "Most Recent Inspection": "04-14-2016", "Lot": 39, "Latitude": 40.74748082, "_id": {"$oid": "58c9259116870f9dd95da79c"}, "Owner Address": "157 FAIRMOUNT AVE", "Block": 1825, "City, State": "NEWARK, NJ"}, {"Vital Street Name": "S 11TH ST", "Vital House Number": 163, "Owner Name": "GUTIERREZ, MARTIN E.", "Class Desc": "Vacant", "Zipcode": "", "Longitude": -74.197875781365, "NetValue": 0, "Most Recent Inspection": "05-11-2016", "Lot": 13, "Latitude": 40.748716, "_id": {"$oid": "58c9259116870f9dd95da79d"}, "Owner Address": "163 S 11TH ST", "Block": 1825, "City, State": "NEWARK, NJ"}, {"Vital Street Name": "S 11TH ST", "Vital House Number": 197, "Owner Name": "PACIFIC UNION FINANCIAL, LLC", "Class Desc": "Vacant", "Zipcode": "", "Longitude": -74.198415876987, "NetValue": 0, "Most Recent Inspection": "09-06-2016", "Lot": 31, "Latitude": 40.74762858, "_id": {"$oid": "58c9259116870f9dd95da79e"}, "Owner Address": "1603 LBJ FWY #500", "Block": 1825, "City, State": "FARMERS BRANCH, TX"}, {"Vital Street Name": "S 12TH ST", "Vital House Number": 158, "Owner Name": "CELESTIAL CHURCH OF CHRIST%AWOYOMI", "Class Desc": "Abandoned", "Zipcode": "", "Longitude": -74.198247269292, "NetValue": 0, "Most Recent Inspection": "09-08-2016", "Lot": 58, "Latitude": 40.74874929, "_id": {"$oid": "58c9259116870f9dd95da79f"}, "Owner Address": "475 SPRINGFIELD AVE.", "Block": 1825, "City, State": "NEWARK, NJ"}, {"Vital Street Name": "S 12TH ST", "Vital House Number": 154, "Owner Name": "BANK OF NEW YORK MEL,", "Class Desc": "Vacant", "Zipcode": "", "Longitude": -74.198183894724, "NetValue": 0, "Most Recent Inspection": "01-29-2016", "Lot": 60, "Latitude": 40.74887734, "_id": {"$oid": "58c9259116870f9dd95da7a0"}, "Owner Address": "55 BEATTIE PL. #110", "Block": 1825, "City, State": "GREENVILLE,SC"}, {"Vital Street Name": "S 11TH ST", "Vital House Number": 158, "Owner Name": "PATCH OF LAND LENDIN,LLC,", "Class Desc": "Abandoned", "Zipcode": 7107, "Longitude": -74.19723954552, "NetValue": 0, "Most Recent Inspection": "09-06-2016", "Lot": 60, "Latitude": 40.74875355, "_id": {"$oid": "58c9259116870f9dd95da7a1"}, "Owner Address": "1964 WESTWOOD BLVD #350", "Block": 1826, "City, State": "LOS ANGELES, CA"}, {"Vital Street Name": "S 10TH ST", "Vital House Number": 129, "Owner Name": "FAIRMOUNT HEIGHTS DE,", "Class Desc": "Vacant", "Zipcode": 7105, "Longitude": -74.196962700412, "NetValue": 0, "Most Recent Inspection": "09-01-2016", "Lot": 11, "Latitude": 40.74853728, "_id": {"$oid": "58c9259116870f9dd95da7a2"}, "Owner Address": "188 JEFFERSON ST #140", "Block": 1826, "City, State": "NEWARK, NJ"}, {"Vital Street Name": "S 11TH ST", "Vital House Number": "192-194", "Owner Name": "MOGOLI, SYLVESTER N.", "Class Desc": "Vacant", "Zipcode": "", "Longitude": -74.197795563522, "NetValue": 0, "Most Recent Inspection": "01-04-2016", "Lot": 42, "Latitude": 40.74763389, "_id": {"$oid": "58c9259116870f9dd95da7a3"}, "Owner Address": "163 S 6TH ST", "Block": 1826, "City, State": "NEWARK, NJ"}, {"Vital Street Name": "S 11TH ST", "Vital House Number": 164, "Owner Name": "DEDARBOUZE, JOSEPH", "Class Desc": "Abandoned", "Zipcode": 7107, "Longitude": -74.197334815029, "NetValue": 0, "Most Recent Inspection": "09-06-2016", "Lot": 57, "Latitude": 40.74856144, "_id": {"$oid": "58c9259116870f9dd95da7a4"}, "Owner Address": "29546 WHITESTONE LANE", "Block": 1826, "City, State": "MILLSBORO NJ"}, {"Vital Street Name": "S 10TH ST", "Vital House Number": 131, "Owner Name": "TAMAKLO, JACQUELIN S", "Class Desc": "Vacant", "Zipcode": 7107, "Longitude": -74.197010181625, "NetValue": 0, "Most Recent Inspection": "09-01-2016", "Lot": 61, "Latitude": 40.74844132, "_id": {"$oid": "58c9259116870f9dd95da7a5"}, "Owner Address": "84 MT PLEASANT AVE", "Block": 1826, "City, State": "DOVER, NJ"}, {"Vital Street Name": "S 11TH ST", "Vital House Number": 160, "Owner Name": "GAYMON, MAUGHA", "Class Desc": "Vacant", "Zipcode": "", "Longitude": -74.19727122692, "NetValue": 0, "Most Recent Inspection": "04-04-2016", "Lot": 59, "Latitude": 40.74868952, "_id": {"$oid": "58c9259116870f9dd95da7a6"}, "Owner Address": "160 S 11TH ST", "Block": 1826, "City, State": "NEWARK, NJ"}, {"Vital Street Name": "S 10TH ST", "Vital House Number": 152, "Owner Name": "NEW JERSEY WHOLESALE,", "Class Desc": "Abandoned", "Zipcode": 7111, "Longitude": -74.19677545569, "NetValue": 0, "Most Recent Inspection": "09-01-2016", "Lot": 47, "Latitude": 40.74766792, "_id": {"$oid": "58c9259116870f9dd95da7a7"}, "Owner Address": "30 NORMANDY PL", "Block": 1827, "City, State": "IRVINGTON, NJ"}, {"Vital Street Name": "S 9TH ST", "Vital House Number": 109, "Owner Name": "U.S. BANK NATIONAL A,", "Class Desc": "Vacant", "Zipcode": "", "Longitude": -74.196245529839, "NetValue": 0, "Most Recent Inspection": "09-30-2016", "Lot": 16, "Latitude": 40.74795626, "_id": {"$oid": "58c9259116870f9dd95da7a8"}, "Owner Address": "8950 CYPRESS WATERS BLVD", "Block": 1827, "City, State": "COPPELL,TX"}, {"Vital Street Name": "S 9TH ST", "Vital House Number": 139, "Owner Name": "PEYNADO, GRACE", "Class Desc": "Vacant", "Zipcode": "", "Longitude": -74.19674502575, "NetValue": 0, "Most Recent Inspection": "09-30-2016", "Lot": 31, "Latitude": 40.74694722, "_id": {"$oid": "58c9259116870f9dd95da7a9"}, "Owner Address": "85 N DAY ST", "Block": 1827, "City, State": "ORANGE, NJ"}, {"Vital Street Name": "S 10TH ST", "Vital House Number": 138, "Owner Name": "SEVERINO, ADRIAN", "Class Desc": "Vacant", "Zipcode": 7107, "Longitude": -74.196553374047, "NetValue": 0, "Most Recent Inspection": "09-01-2016", "Lot": 54, "Latitude": 40.74811713, "_id": {"$oid": "58c9259116870f9dd95da7aa"}, "Owner Address": "138 S 10TH ST", "Block": 1827, "City, State": "NEWARK, NJ"}, {"Vital Street Name": "11TH AVE", "Vital House Number": 93, "Owner Name": "FEDERAL NATIONAL MORTGAGE", "Class Desc": "Vacant", "Zipcode": "", "Longitude": -74.196934227022, "NetValue": 0, "Most Recent Inspection": "05-11-2016", "Lot": 34, "Latitude": 40.74687778, "_id": {"$oid": "58c9259116870f9dd95da7ab"}, "Owner Address": "PO BOX 650043", "Block": 1827, "City, State": "DALLAS, TX"}, {"Vital Street Name": "S 9TH ST", "Vital House Number": 134, "Owner Name": "CITIBANK NA (TR),", "Class Desc": "Abandoned", "Zipcode": "", "Longitude": -74.196087884573, "NetValue": 0, "Most Recent Inspection": "09-30-2016", "Lot": 41, "Latitude": 40.74702773, "_id": {"$oid": "58c9259116870f9dd95da7ac"}, "Owner Address": "1675 PALM BEACH LAKES", "Block": 1828, "City, State": "WEST PALM BEACH FL"}, {"Vital Street Name": "S 9TH ST", "Vital House Number": 130, "Owner Name": "FLIPPING NEWARK 001,LLC", "Class Desc": "Vacant", "Zipcode": "", "Longitude": -74.196023973307, "NetValue": 0, "Most Recent Inspection": "04-12-2016", "Lot": 43, "Latitude": 40.74715642, "_id": {"$oid": "58c9259116870f9dd95da7ad"}, "Owner Address": "77 SPRINGDALE AVE", "Block": 1828, "City, State": "NEWARK, NJ"}, {"Vital Street Name": "11TH AVE", "Vital House Number": 59, "Owner Name": "JORDAN, SHALON", "Class Desc": "Vacant", "Zipcode": "", "Longitude": -74.19505258624, "NetValue": 0, "Most Recent Inspection": "05-11-2016", "Lot": 33, "Latitude": 40.74640805, "_id": {"$oid": "58c9259116870f9dd95da7ae"}, "Owner Address": "59 11TH AVE", "Block": 1829, "City, State": "NEWARK, NJ"}, {"Vital Street Name": "11TH AVE", "Vital House Number": 57, "Owner Name": "DUNNELL SILAS & ANNIE J", "Class Desc": "Vacant", "Zipcode": "", "Longitude": -74.194990120953, "NetValue": 0, "Most Recent Inspection": "04-14-2016", "Lot": 32, "Latitude": 40.74634011, "_id": {"$oid": "58c9259116870f9dd95da7af"}, "Owner Address": "57 11TH AVE", "Block": 1829, "City, State": "NEWARK, NJ"}, {"Vital Street Name": "S 8TH ST", "Vital House Number": "110-", "Owner Name": "JOSEPH, ERIC RAYMOND", "Class Desc": "Vacant", "Zipcode": "", "Longitude": -74.195335389038, "NetValue": 0, "Most Recent Inspection": "05-17-2016", "Lot": 37, "Latitude": 40.74652277, "_id": {"$oid": "58c9259116870f9dd95da7b0"}, "Owner Address": "26 49 96TH ST", "Block": 1829, "City, State": "ELMSFORD, NY"}, {"Vital Street Name": "S 7TH ST", "Vital House Number": 65, "Owner Name": "ABDALLA, WAZIRI", "Class Desc": "Vacant", "Zipcode": "", "Longitude": -74.194742348847, "NetValue": 0, "Most Recent Inspection": "03-09-2016", "Lot": 24, "Latitude": 40.74694138, "_id": {"$oid": "58c9259116870f9dd95da7b1"}, "Owner Address": "65 S 7TH ST", "Block": 1829, "City, State": "NEWARK, NJ"}, {"Vital Street Name": "S 7TH ST", "Vital House Number": 71, "Owner Name": "BLAND, CHRISTOPHER", "Class Desc": "Vacant", "Zipcode": "", "Longitude": -74.194837449443, "NetValue": 0, "Most Recent Inspection": "03-09-2016", "Lot": 27, "Latitude": 40.74674899, "_id": {"$oid": "58c9259116870f9dd95da7b2"}, "Owner Address": "71 S 7TH ST", "Block": 1829, "City, State": "NEWARK, NJ"}, {"Vital Street Name": "S 8TH ST", "Vital House Number": 102, "Owner Name": "JONES, LOWELL F.", "Class Desc": "Vacant", "Zipcode": "", "Longitude": -74.19517646492, "NetValue": 0, "Most Recent Inspection": "03-16-2016", "Lot": 42, "Latitude": 40.7468447, "_id": {"$oid": "58c9259116870f9dd95da7b3"}, "Owner Address": "1453 EDWIN PL", "Block": 1829, "City, State": "PLAINFIELD, NJ"}, {"Vital Street Name": "2ND ST", "Vital House Number": 26, "Owner Name": "JPD INC,", "Class Desc": "Vacant", "Zipcode": "", "Longitude": -74.190240546743, "NetValue": 0, "Most Recent Inspection": "05-11-2016", "Lot": 9, "Latitude": 40.74700408, "_id": {"$oid": "58c9259116870f9dd95da7b4"}, "Owner Address": "418 CENTRAL AVE.", "Block": 1842, "City, State": "NEWARK, NJ"}, {"Vital Street Name": "FAIRMOUNT AVE", "Vital House Number": 17, "Owner Name": "FERNANDEZ, JOSEFINA", "Class Desc": "Abandoned", "Zipcode": "", "Longitude": -74.191336338236, "NetValue": 0, "Most Recent Inspection": "01-19-2017", "Lot": 12, "Latitude": 40.74697278, "_id": {"$oid": "58c9259116870f9dd95da7b5"}, "Owner Address": "17 FAIRMOUNT AVE", "Block": 1843, "City, State": "NEWARK, NJ"}, {"Vital Street Name": "CENTRAL AVE", "Vital House Number": 383, "Owner Name": "DEUTSCHE BANK NATION TRUST COMPANY", "Class Desc": "Vacant", "Zipcode": "", "Longitude": -74.187844730732, "NetValue": 0, "Most Recent Inspection": "08-02-2016", "Lot": 7, "Latitude": 40.74715915, "_id": {"$oid": "58c9259116870f9dd95da7b6"}, "Owner Address": "383 CENTRAL AVE", "Block": 1845, "City, State": "NEWARK, NJ"}, {"Vital Street Name": "DICKERSON ST", "Vital House Number": 122, "Owner Name": "BRELAND, JANINE & SMITH, JANNIE L", "Class Desc": "Vacant", "Zipcode": "", "Longitude": -74.18908354226, "NetValue": 0, "Most Recent Inspection": "07-11-2016", "Lot": 1.09, "Latitude": 40.74812495, "_id": {"$oid": "58c9259116870f9dd95da7b7"}, "Owner Address": "1261 RALPH AVE", "Block": 1846, "City, State": "BROOKLYN, NY"}, {"Vital Street Name": "2ND ST", "Vital House Number": 49, "Owner Name": "CHP 49 SECOND STREET,", "Class Desc": "Vacant", "Zipcode": "", "Longitude": -74.189185408316, "NetValue": 0, "Most Recent Inspection": "05-11-2016", "Lot": 26, "Latitude": 40.74776601, "_id": {"$oid": "58c9259116870f9dd95da7b8"}, "Owner Address": "1992 MORRIS AVE STE 185", "Block": 1846, "City, State": "UNION,NJ"}, {"Vital Street Name": "2ND ST", "Vital House Number": 48, "Owner Name": "BRADBERRY, JOHN JR.", "Class Desc": "Abandoned", "Zipcode": "", "Longitude": -74.189702605873, "NetValue": 0, "Most Recent Inspection": "12-29-2016", "Lot": 9, "Latitude": 40.74788911, "_id": {"$oid": "58c9259116870f9dd95da7b9"}, "Owner Address": "48 2ND ST", "Block": 1847, "City, State": "NEWARK, NJ"}, {"Vital Street Name": "3RD ST", "Vital House Number": 15, "Owner Name": "MCLEAN, LAWRENCE A", "Class Desc": "Vacant", "Zipcode": "", "Longitude": -74.190002811286, "NetValue": 0, "Most Recent Inspection": "05-10-2016", "Lot": 23, "Latitude": 40.74801544, "_id": {"$oid": "58c9259116870f9dd95da7ba"}, "Owner Address": "15 3RD ST.", "Block": 1847, "City, State": "NEWARK, NJ"}, {"Vital Street Name": "3RD ST", "Vital House Number": 13, "Owner Name": "CARRILLO-SIGALLNA, HUGO E", "Class Desc": "Abandoned", "Zipcode": 7107, "Longitude": -74.190046812067, "NetValue": 0, "Most Recent Inspection": "05-10-2016", "Lot": 22, "Latitude": 40.74794968, "_id": {"$oid": "58c9259116870f9dd95da7bb"}, "Owner Address": "13 3RD ST.", "Block": 1847, "City, State": "NEWARK, NJ"}, {"Vital Street Name": "2ND ST", "Vital House Number": 54, "Owner Name": "BRERETON, ADRIAN", "Class Desc": "Vacant", "Zipcode": "", "Longitude": -74.189581434418, "NetValue": 0, "Most Recent Inspection": "05-11-2016", "Lot": 6, "Latitude": 40.74807023, "_id": {"$oid": "58c9259116870f9dd95da7bc"}, "Owner Address": "54 2ND ST", "Block": 1847, "City, State": "NEWARK, NJ"}, {"Vital Street Name": "DICKERSON ST", "Vital House Number": 138, "Owner Name": "SPANN, DERRICK", "Class Desc": "Vacant", "Zipcode": "", "Longitude": -74.189824508864, "NetValue": 0, "Most Recent Inspection": "08-03-2016", "Lot": 1.08, "Latitude": 40.74847592, "_id": {"$oid": "58c9259116870f9dd95da7bd"}, "Owner Address": "40 MT PROSPECT AVE.", "Block": 1847, "City, State": "NEWARK, NJ"}, {"Vital Street Name": "4TH ST", "Vital House Number": 47, "Owner Name": "4TH ST LAKAY LLC", "Class Desc": "Vacant", "Zipcode": "", "Longitude": -74.190530307882, "NetValue": 0, "Most Recent Inspection": "06-22-2016", "Lot": 28.04, "Latitude": 40.74867946, "_id": {"$oid": "58c9259116870f9dd95da7be"}, "Owner Address": "579 RARITAN RD #101", "Block": 1848, "City, State": "ROSELLE, NJ"}, {"Vital Street Name": "5TH ST", "Vital House Number": 33, "Owner Name": "CEPHAS ESTHER", "Class Desc": "Abandoned", "Zipcode": "", "Longitude": -74.19138199359, "NetValue": 0, "Most Recent Inspection": "01-03-2017", "Lot": 40, "Latitude": 40.74888454, "_id": {"$oid": "58c9259116870f9dd95da7bf"}, "Owner Address": "31 JOHNSON AVE", "Block": 1849, "City, State": "CRANFORD, NJ"}, {"Vital Street Name": "4TH ST", "Vital House Number": 40, "Owner Name": "FREITAS EVELYN & POLLOX JOHNSIE", "Class Desc": "Vacant", "Zipcode": "", "Longitude": -74.191137972358, "NetValue": 0, "Most Recent Inspection": "05-12-2016", "Lot": 11, "Latitude": 40.7486518, "_id": {"$oid": "58c9259116870f9dd95da7c0"}, "Owner Address": "40 4TH ST", "Block": 1849, "City, State": "NEWARK, NJ"}, {"Vital Street Name": "5TH ST", "Vital House Number": 29, "Owner Name": "WILLIS, PAULETTA & CYNTHIA", "Class Desc": "Vacant", "Zipcode": "", "Longitude": -74.191447731422, "NetValue": 0, "Most Recent Inspection": "05-18-2016", "Lot": 38, "Latitude": 40.74877104, "_id": {"$oid": "58c9259116870f9dd95da7c1"}, "Owner Address": "29 N 5TH ST", "Block": 1849, "City, State": "NEWARK, NJ"}, {"Vital Street Name": "5TH ST", "Vital House Number": 16, "Owner Name": "HARNESS HOMES GROUP,LLC", "Class Desc": "Vacant", "Zipcode": 7107, "Longitude": -74.192202598078, "NetValue": 0, "Most Recent Inspection": "04-19-2016", "Lot": 18, "Latitude": 40.7485411, "_id": {"$oid": "58c9259116870f9dd95da7c2"}, "Owner Address": "902 BROADWAY 6TH FL", "Block": 1850, "City, State": "NEW YORK, NY"}, {"Vital Street Name": "N 6TH ST", "Vital House Number": 21, "Owner Name": "OKOH, NKONYE S.", "Class Desc": "Abandoned", "Zipcode": 7107, "Longitude": -74.192249107794, "NetValue": 0, "Most Recent Inspection": "08-01-2016", "Lot": 41, "Latitude": 40.74907342, "_id": {"$oid": "58c9259116870f9dd95da7c3"}, "Owner Address": "500 WEST 56TH ST", "Block": 1850, "City, State": "NEW YORK, NY"}, {"Vital Street Name": "N 6TH ST", "Vital House Number": 17, "Owner Name": "AGUIAS CARPENTRY, INC.", "Class Desc": "Vacant", "Zipcode": 7107, "Longitude": -74.192330775575, "NetValue": 0, "Most Recent Inspection": "05-12-2016", "Lot": 39, "Latitude": 40.74895143, "_id": {"$oid": "58c9259116870f9dd95da7c4"}, "Owner Address": "106 GARRISON ST", "Block": 1850, "City, State": "NEWARK, NJ"}, {"Vital Street Name": "N 7TH ST", "Vital House Number": 11, "Owner Name": "PARAMOUNT HOME DEVELOPMENT,LLC", "Class Desc": "Vacant", "Zipcode": "", "Longitude": -74.192845334944, "NetValue": 0, "Most Recent Inspection": "05-12-2016", "Lot": 4, "Latitude": 40.74969411, "_id": {"$oid": "58c9259116870f9dd95da7c5"}, "Owner Address": "11 N 7TH ST", "Block": 1852, "City, State": "NEWARK, NJ"}, {"Vital Street Name": "S 8TH ST", "Vital House Number": "18-22", "Owner Name": "TOUSSAINT, CURBY", "Class Desc": "Vacant", "Zipcode": "", "Longitude": -74.19377494228, "NetValue": 0, "Most Recent Inspection": "05-17-2016", "Lot": 43, "Latitude": 40.74982453, "_id": {"$oid": "58c9259116870f9dd95da7c6"}, "Owner Address": "810 BROADWAY #302", "Block": 1854, "City, State": "NEWARK, NJ"}, {"Vital Street Name": "S 9TH ST", "Vital House Number": 78, "Owner Name": "78 SOUTH 9TH STREET,", "Class Desc": "Vacant", "Zipcode": 7107, "Longitude": -74.195057281117, "NetValue": 0, "Most Recent Inspection": "04-28-2016", "Lot": 37, "Latitude": 40.74911408, "_id": {"$oid": "58c9259116870f9dd95da7c7"}, "Owner Address": "78 S 9TH ST", "Block": 1855, "City, State": "NEWARK, NJ"}, {"Vital Street Name": "9TH AVE", "Vital House Number": 18, "Owner Name": "CARCHIPULLA, SEGUNDO C &NESTOR", "Class Desc": "Abandoned", "Zipcode": "", "Longitude": -74.19477206852, "NetValue": 0, "Most Recent Inspection": "05-16-2016", "Lot": 8, "Latitude": 40.75063614, "_id": {"$oid": "58c9259116870f9dd95da7c8"}, "Owner Address": "349 NO. 11TH ST", "Block": 1856, "City, State": "NEWARK, NJ"}, {"Vital Street Name": "9TH AVE", "Vital House Number": 20, "Owner Name": "GOODS CLAYBORN SR & ADELL GOODS", "Class Desc": "Abandoned", "Zipcode": "", "Longitude": -74.194848232095, "NetValue": 0, "Most Recent Inspection": "05-16-2016", "Lot": 7, "Latitude": 40.75066639, "_id": {"$oid": "58c9259116870f9dd95da7c9"}, "Owner Address": "20 9TH AVE", "Block": 1856, "City, State": "NEWARK, NJ"}, {"Vital Street Name": "S 10TH ST", "Vital House Number": 92, "Owner Name": "DUBE, KENNETH", "Class Desc": "Abandoned", "Zipcode": "", "Longitude": -74.195677839385, "NetValue": 0, "Most Recent Inspection": "04-04-2016", "Lot": 47, "Latitude": 40.7498915, "_id": {"$oid": "58c9259116870f9dd95da7ca"}, "Owner Address": "59 2ND STREET", "Block": 1856, "City, State": "SOUTH ORANGE,NJ"}, {"Vital Street Name": "S 10TH ST", "Vital House Number": 103, "Owner Name": "103 SOUTH 10TH LLC", "Class Desc": "Vacant", "Zipcode": 7107, "Longitude": -74.196407255552, "NetValue": 0, "Most Recent Inspection": "09-02-2016", "Lot": 26, "Latitude": 40.74966152, "_id": {"$oid": "58c9259116870f9dd95da7cb"}, "Owner Address": "150 S 8TH ST", "Block": 1857, "City, State": "BROOKLYN, NY"}, {"Vital Street Name": "S 11TH ST", "Vital House Number": 107, "Owner Name": "COMMUNITY ASSET PRESERVATION CORP", "Class Desc": "Vacant", "Zipcode": 7107, "Longitude": -74.19687400104, "NetValue": 0, "Most Recent Inspection": "09-06-2016", "Lot": 13, "Latitude": 40.75074824, "_id": {"$oid": "58c9259116870f9dd95da7cc"}, "Owner Address": "108 CHURCH ST 3RD FL", "Block": 1858, "City, State": "NEW BRUNSWICK, NJ"}, {"Vital Street Name": "S 11TH ST", "Vital House Number": 111, "Owner Name": "SHARPE, LARRY", "Class Desc": "Abandoned", "Zipcode": 7107, "Longitude": -74.19693715877, "NetValue": 0, "Most Recent Inspection": "04-26-2016", "Lot": 15, "Latitude": 40.75061969, "_id": {"$oid": "58c9259116870f9dd95da7cd"}, "Owner Address": "5 FAIRHILL RD", "Block": 1858, "City, State": "WESTFIELD, NJ"}, {"Vital Street Name": "S 11TH ST", "Vital House Number": 113, "Owner Name": "CITY OF NEWARK", "Class Desc": "", "Zipcode": 7107, "Longitude": -74.196968727411, "NetValue": 0, "Most Recent Inspection": "09-06-2016", "Lot": 16, "Latitude": 40.75055542, "_id": {"$oid": "58c9259116870f9dd95da7ce"}, "Owner Address": "920 BROAD ST.", "Block": 1858, "City, State": "NEWARK, N.J."}, {"Vital Street Name": "CENTRAL AVE", "Vital House Number": "585-587", "Owner Name": "CIG CENTRAL, LLC", "Class Desc": "Vacant", "Zipcode": "", "Longitude": -74.198751266366, "NetValue": 0, "Most Recent Inspection": "11-16-2016", "Lot": 37, "Latitude": 40.74995524, "_id": {"$oid": "58c9259116870f9dd95da7cf"}, "Owner Address": "275 NORTH MIDDLETOWN RD", "Block": 1859, "City, State": "PEARL RIVER, NY"}, {"Vital Street Name": "S 12TH ST", "Vital House Number": 117, "Owner Name": "U.S. BANK NATIONAL ASSOCIATION", "Class Desc": "Vacant", "Zipcode": "", "Longitude": -74.198006954375, "NetValue": 0, "Most Recent Inspection": "12-05-2016", "Lot": 21, "Latitude": 40.75048524, "_id": {"$oid": "58c9259116870f9dd95da7d0"}, "Owner Address": "8950 CYPRESS WATERS BLVD", "Block": 1859, "City, State": "COPPELL, TX"}, {"Vital Street Name": "S 13TH ST", "Vital House Number": 124, "Owner Name": "BOYLE, WILLIAM M", "Class Desc": "Vacant", "Zipcode": 7102, "Longitude": -74.198241169659, "NetValue": 0, "Most Recent Inspection": "09-09-2016", "Lot": 50, "Latitude": 40.75079184, "_id": {"$oid": "58c9259116870f9dd95da7d1"}, "Owner Address": "124 S 13TH ST", "Block": 1860, "City, State": "NEWARK, NJ"}, {"Vital Street Name": "S 13TH ST", "Vital House Number": 123, "Owner Name": "NEWARK PROPERTIES S13,LLC", "Class Desc": "Abandoned", "Zipcode": "", "Longitude": -74.198741254334, "NetValue": 0, "Most Recent Inspection": "09-23-2016", "Lot": 18, "Latitude": 40.75091711, "_id": {"$oid": "58c9259116870f9dd95da7d2"}, "Owner Address": "50 COLUMBIA ST.", "Block": 1860, "City, State": "NEWARK, NJ"}, {"Vital Street Name": "9TH AVE", "Vital House Number": 104, "Owner Name": "U.S. BANK TRUST, N.A.", "Class Desc": "Vacant", "Zipcode": "", "Longitude": -74.199350381284, "NetValue": 0, "Most Recent Inspection": "12-19-2016", "Lot": 6, "Latitude": 40.75197288, "_id": {"$oid": "58c9259116870f9dd95da7d3"}, "Owner Address": "13801 WIRELESS WAY", "Block": 1861, "City, State": "OKLAHOMA CITY, OK"}, {"Vital Street Name": "9TH AVE", "Vital House Number": 106, "Owner Name": "AFRANKO INC,", "Class Desc": "Vacant", "Zipcode": "", "Longitude": -74.199453722874, "NetValue": 0, "Most Recent Inspection": "05-16-2016", "Lot": 64, "Latitude": 40.7520026, "_id": {"$oid": "58c9259116870f9dd95da7d4"}, "Owner Address": "1 WEBSTER ST", "Block": 1861, "City, State": "IRVINGTON, NJ"}, {"Vital Street Name": "S 14TH ST", "Vital House Number": 81, "Owner Name": "PEREZ, MARIA", "Class Desc": "Vacant", "Zipcode": "", "Longitude": -74.198821209867, "NetValue": 0, "Most Recent Inspection": "04-14-2016", "Lot": 24, "Latitude": 40.75289541, "_id": {"$oid": "58c9259116870f9dd95da7d5"}, "Owner Address": "81 S 14TH ST", "Block": 1865, "City, State": "NEWARK, NJ"}, {"Vital Street Name": "9TH AVE", "Vital House Number": 97, "Owner Name": "97 NINTH AVENUE LLC,", "Class Desc": "Abandoned", "Zipcode": "", "Longitude": -74.199002401578, "NetValue": 0, "Most Recent Inspection": "04-14-2016", "Lot": 31, "Latitude": 40.75227943, "_id": {"$oid": "58c9259116870f9dd95da7d6"}, "Owner Address": "97 9TH AVE", "Block": 1865, "City, State": "NEWARK, NJ"}, {"Vital Street Name": "S 14TH ST", "Vital House Number": 94, "Owner Name": "ALVEZ, MICHAEL", "Class Desc": "Vacant", "Zipcode": 7107, "Longitude": -74.198472256038, "NetValue": 0, "Most Recent Inspection": "09-14-2016", "Lot": 39, "Latitude": 40.75235387, "_id": {"$oid": "58c9259116870f9dd95da7d7"}, "Owner Address": "94 S 14TH ST", "Block": 1866, "City, State": "NEWARK, NJ"}, {"Vital Street Name": "S 13TH ST", "Vital House Number": 93, "Owner Name": "ALMONACY, ROUDY", "Class Desc": "Vacant", "Zipcode": 11422, "Longitude": -74.198225524509, "NetValue": 0, "Most Recent Inspection": "01-04-2016", "Lot": 33, "Latitude": 40.75207278, "_id": {"$oid": "58c9259116870f9dd95da7d8"}, "Owner Address": "138-14 242 3RD ST", "Block": 1866, "City, State": "ROSEDALE, NY"}, {"Vital Street Name": "S 13TH ST", "Vital House Number": "77-79", "Owner Name": "FERRARO, WAYNE", "Class Desc": "Vacant", "Zipcode": "", "Longitude": -74.197994727068, "NetValue": 0, "Most Recent Inspection": "04-14-2016", "Lot": 25, "Latitude": 40.7525406, "_id": {"$oid": "58c9259116870f9dd95da7d9"}, "Owner Address": "77-79 SOUTH 13TH ST", "Block": 1866, "City, State": "NEWARK, NJ"}, {"Vital Street Name": "9TH AVE", "Vital House Number": 77, "Owner Name": "GENSCHOW, PAULA", "Class Desc": "Abandoned", "Zipcode": "", "Longitude": -74.19770020093, "NetValue": 0, "Most Recent Inspection": "05-16-2016", "Lot": 39, "Latitude": 40.75194937, "_id": {"$oid": "58c9259116870f9dd95da7da"}, "Owner Address": "77 9TH AVE", "Block": 1867, "City, State": "NEWARK, NJ"}, {"Vital Street Name": "S 13TH ST", "Vital House Number": 54, "Owner Name": "EVANS HENRY MCCOY", "Class Desc": "Abandoned", "Zipcode": "", "Longitude": -74.197054324322, "NetValue": 0, "Most Recent Inspection": "04-26-2016", "Lot": 58, "Latitude": 40.75319437, "_id": {"$oid": "58c9259116870f9dd95da7db"}, "Owner Address": "54 S 13TH ST", "Block": 1867, "City, State": "NEWARK, NJ"}, {"Vital Street Name": "S 12TH ST", "Vital House Number": "39-41", "Owner Name": "NOVA, ROBERT A", "Class Desc": "Vacant", "Zipcode": 7107, "Longitude": -74.196715900738, "NetValue": 0, "Most Recent Inspection": "09-08-2016", "Lot": 12, "Latitude": 40.75309906, "_id": {"$oid": "58c9259116870f9dd95da7dc"}, "Owner Address": "39-41 S 12TH ST", "Block": 1867, "City, State": "NEWARK, NJ"}, {"Vital Street Name": "S 12TH ST", "Vital House Number": 75, "Owner Name": "CHAPPELL, DENISE", "Class Desc": "Vacant", "Zipcode": 7107, "Longitude": -74.197262010094, "NetValue": 0, "Most Recent Inspection": "10-07-2015", "Lot": 33, "Latitude": 40.75199444, "_id": {"$oid": "58c9259116870f9dd95da7dd"}, "Owner Address": "75 S 12TH ST", "Block": 1867, "City, State": "NEWARK, NJ"}, {"Vital Street Name": "S 12TH ST", "Vital House Number": 55, "Owner Name": "JUDELSON, ADAM H", "Class Desc": "Abandoned", "Zipcode": "", "Longitude": -74.196954394107, "NetValue": 0, "Most Recent Inspection": "03-30-2016", "Lot": 20, "Latitude": 40.75261645, "_id": {"$oid": "58c9259116870f9dd95da7de"}, "Owner Address": "19 E. 80TH STREET #3D", "Block": 1867, "City, State": "NEW YORK NY"}, {"Vital Street Name": "S 12TH ST", "Vital House Number": 73, "Owner Name": "MOORE, JAMES III", "Class Desc": "Abandoned", "Zipcode": "", "Longitude": -74.197219296759, "NetValue": 0, "Most Recent Inspection": "03-30-2016", "Lot": 31, "Latitude": 40.75207988, "_id": {"$oid": "58c9259116870f9dd95da7df"}, "Owner Address": "663 EAST 221ST ST.", "Block": 1867, "City, State": "BRONX,NY"}, {"Vital Street Name": "S 12TH ST", "Vital House Number": "73-", "Owner Name": "BELL WALTER & ELPHENIA", "Class Desc": "Abandoned", "Zipcode": "", "Longitude": -74.197240803631, "NetValue": 0, "Most Recent Inspection": "03-30-2016", "Lot": 32, "Latitude": 40.75203686, "_id": {"$oid": "58c9259116870f9dd95da7e0"}, "Owner Address": "73 1/2 S 12TH ST", "Block": 1867, "City, State": "NEWARK, NJ"}, {"Vital Street Name": "S 12TH ST", "Vital House Number": 35, "Owner Name": "PINEDA, JULIA N.", "Class Desc": "Vacant", "Zipcode": "", "Longitude": -74.19665006678, "NetValue": 0, "Most Recent Inspection": "04-14-2016", "Lot": 66, "Latitude": 40.75323228, "_id": {"$oid": "58c9259116870f9dd95da7e1"}, "Owner Address": "35 S 12TH ST", "Block": 1867, "City, State": "NEWARK, NJ"}, {"Vital Street Name": "9TH AVE", "Vital House Number": 61, "Owner Name": "REGUERO, EZEQUIEL & ETAL", "Class Desc": "Vacant", "Zipcode": "", "Longitude": -74.196837282323, "NetValue": 0, "Most Recent Inspection": "05-16-2016", "Lot": 38, "Latitude": 40.75170145, "_id": {"$oid": "58c9259116870f9dd95da7e2"}, "Owner Address": "61 9TH AVE", "Block": 1868, "City, State": "NEWARK, NJ"}, {"Vital Street Name": "S 12TH ST", "Vital House Number": "36-", "Owner Name": "TSR ASSOCIATES LLC,", "Class Desc": "Vacant", "Zipcode": 7107, "Longitude": -74.196104726293, "NetValue": 0, "Most Recent Inspection": "09-08-2016", "Lot": 60, "Latitude": 40.75307988, "_id": {"$oid": "58c9259116870f9dd95da7e3"}, "Owner Address": "37-01 LENOX DR", "Block": 1868, "City, State": "FAIR LAWN, NJ"}, {"Vital Street Name": "9TH AVE", "Vital House Number": 49, "Owner Name": "HUSSAIN, ROMANA", "Class Desc": "Abandoned", "Zipcode": "", "Longitude": -74.19633097722, "NetValue": 0, "Most Recent Inspection": "05-16-2016", "Lot": 32, "Latitude": 40.75155691, "_id": {"$oid": "58c9259116870f9dd95da7e4"}, "Owner Address": "49 9TH AVE", "Block": 1868, "City, State": "NEWARK, NJ"}, {"Vital Street Name": "N 7TH ST", "Vital House Number": 34, "Owner Name": "JEAN INVESTMENT GROUP,LLC", "Class Desc": "Abandoned", "Zipcode": "", "Longitude": -74.192784793209, "NetValue": 0, "Most Recent Inspection": "08-05-2016", "Lot": 29, "Latitude": 40.75070125, "_id": {"$oid": "58c9259116870f9dd95da7e5"}, "Owner Address": "579B RARITAN RD. #101", "Block": 1873, "City, State": "ROSELLE,NJ"}, {"Vital Street Name": "N 6TH ST", "Vital House Number": 62, "Owner Name": "SIMIYU, MARTIN", "Class Desc": "Vacant", "Zipcode": "", "Longitude": -74.191814600348, "NetValue": 0, "Most Recent Inspection": "01-04-2016", "Lot": 19, "Latitude": 40.75063467, "_id": {"$oid": "58c9259116870f9dd95da7e6"}, "Owner Address": "62 N 6TH ST", "Block": 1874, "City, State": "NEWARK, NJ"}, {"Vital Street Name": "N 6TH ST", "Vital House Number": "35-37", "Owner Name": "37 N SIXTH ST CORP C/O J BURDEN", "Class Desc": "Abandoned", "Zipcode": 7107, "Longitude": -74.191882659265, "NetValue": 0, "Most Recent Inspection": "08-07-2015", "Lot": 24, "Latitude": 40.74962203, "_id": {"$oid": "58c9259116870f9dd95da7e7"}, "Owner Address": "PO BOX 1977", "Block": 1875, "City, State": "DOVER, DE"}, {"Vital Street Name": "SUSSEX AVE", "Vital House Number": "346-", "Owner Name": "ZAHRI, FIRAS", "Class Desc": "Vacant", "Zipcode": "", "Longitude": -74.19120047546, "NetValue": 0, "Most Recent Inspection": "01-04-2016", "Lot": 3, "Latitude": 40.75059481, "_id": {"$oid": "58c9259116870f9dd95da7e8"}, "Owner Address": "463 STUYVESANT AVE", "Block": 1875, "City, State": "IRVINGTON, NJ"}, {"Vital Street Name": "5TH ST", "Vital House Number": 62, "Owner Name": "WELLS FARGO BANK, N.A.", "Class Desc": "Vacant", "Zipcode": "", "Longitude": -74.191173229539, "NetValue": 0, "Most Recent Inspection": "05-10-2016", "Lot": 13, "Latitude": 40.75007961, "_id": {"$oid": "58c9259116870f9dd95da7e9"}, "Owner Address": "101 NO PHILLIPS AVE", "Block": 1875, "City, State": "SIOUX FALLAS, SD"}, {"Vital Street Name": "5TH ST", "Vital House Number": 58, "Owner Name": "PATEL, RAHUL  & AVANTIKA", "Class Desc": "Vacant", "Zipcode": "", "Longitude": -74.191254774319, "NetValue": 0, "Most Recent Inspection": "05-18-2016", "Lot": 15, "Latitude": 40.74995689, "_id": {"$oid": "58c9259116870f9dd95da7ea"}, "Owner Address": "286 E.MT PLEASANT AVE", "Block": 1875, "City, State": "LIVINGSTON NJ"}, {"Vital Street Name": "SUSSEX AVE", "Vital House Number": 342, "Owner Name": "WELLS FARGO BANK NA,", "Class Desc": "Vacant", "Zipcode": "", "Longitude": -74.191024213904, "NetValue": 0, "Most Recent Inspection": "10-20-2016", "Lot": 5, "Latitude": 40.75052277, "_id": {"$oid": "58c9259116870f9dd95da7eb"}, "Owner Address": "3 ADA", "Block": 1875, "City, State": "IRVINE, CA"}, {"Vital Street Name": "N 6TH ST", "Vital House Number": "35-37", "Owner Name": "37 N SIXTH ST CORP C/O J BURDEN", "Class Desc": "Abandoned", "Zipcode": "", "Longitude": -74.191882659265, "NetValue": 0, "Most Recent Inspection": "05-09-2016", "Lot": 24, "Latitude": 40.74962203, "_id": {"$oid": "58c9259116870f9dd95da7ec"}, "Owner Address": "PO BOX 1977", "Block": 1875, "City, State": "DOVER, DE"}, {"Vital Street Name": "", "Vital House Number": "", "Owner Name": "", "Class Desc": "", "Zipcode": "", "Longitude": "", "NetValue": "", "Most Recent Inspection": "", "Lot": "", "Latitude": "", "_id": {"$oid": "58c9259116870f9dd95da7ed"}, "Owner Address": "", "Block": 1875, "City, State": ""}, {"Vital Street Name": "5TH ST", "Vital House Number": 63, "Owner Name": "63 N 5TH ST, LLC,", "Class Desc": "Abandoned", "Zipcode": "", "Longitude": -74.190679539129, "NetValue": 0, "Most Recent Inspection": "04-19-2016", "Lot": 36, "Latitude": 40.74992068, "_id": {"$oid": "58c9259116870f9dd95da7ee"}, "Owner Address": "95 NORTH WASHINGTON AVE", "Block": 1876, "City, State": "BERGENFIELD,NJ"}, {"Vital Street Name": "5TH ST", "Vital House Number": 45, "Owner Name": "45 N. 5TH ASSOCIATES LLC", "Class Desc": "Abandoned", "Zipcode": "", "Longitude": -74.191118272413, "NetValue": 0, "Most Recent Inspection": "05-10-2016", "Lot": 27, "Latitude": 40.74940366, "_id": {"$oid": "58c9259116870f9dd95da7ef"}, "Owner Address": "4706 18TH AVE", "Block": 1876, "City, State": "BROOKLYN, NY"}, {"Vital Street Name": "3RD ST", "Vital House Number": 44, "Owner Name": "GORDON, SARAH & ERICK", "Class Desc": "Vacant", "Zipcode": "", "Longitude": -74.18984442345, "NetValue": 0, "Most Recent Inspection": "05-10-2016", "Lot": 22, "Latitude": 40.74913114, "_id": {"$oid": "58c9259116870f9dd95da7f0"}, "Owner Address": "94 CLAREMONT AVE", "Block": 1877, "City, State": "JERSEY CITY, NJ"},